[{"iata":"AAC","icao":"HEAR","name":"El Arish International Airport","city":"El Arish","cc":"EG","lat":31.0553,"lon":33.828,"big":true},{"iata":"AAE","icao":"DABB","name":"Annaba Rabah Bitat Airport","city":"Annaba","cc":"DZ","lat":36.8268,"lon":7.8133,"big":true},{"iata":"AAL","icao":"EKYT","name":"Aalborg Airport","city":"Aalborg","cc":"DK","lat":57.0948,"lon":9.8499,"big":true},{"iata":"AAN","icao":"OMAL","name":"Al Ain International Airport","city":"Al Ain","cc":"AE","lat":24.2617,"lon":55.6092,"big":true},{"iata":"AAR","icao":"EKAH","name":"Aarhus Airport","city":"Aarhus","cc":"DK","lat":56.3033,"lon":10.6183,"big":true},{"iata":"ABA","icao":"UNAA","name":"Abakan International Airport","city":"Abakan","cc":"RU","lat":53.74,"lon":91.385,"big":true},{"iata":"ABB","icao":"DNAS","name":"Asaba International Airport","city":"Asaba","cc":"NG","lat":6.2042,"lon":6.6653,"big":true},{"iata":"ABD","icao":"OIAA","name":"Abadan Ayatollah Jami International Airport","city":"Abadan","cc":"IR","lat":30.3679,"lon":48.2301,"big":true},{"iata":"ABJ","icao":"DIAP","name":"Félix-Houphouët-Boigny International Airport","city":"Abidjan","cc":"CI","lat":5.2614,"lon":-3.9263,"big":true},{"iata":"ABQ","icao":"KABQ","name":"Albuquerque International Sunport","city":"Albuquerque","cc":"US","lat":35.04,"lon":-106.6089,"big":true},{"iata":"ABV","icao":"DNAA","name":"Nnamdi Azikiwe International Airport","city":"Abuja","cc":"NG","lat":9.0068,"lon":7.2632,"big":true},{"iata":"ABZ","icao":"EGPD","name":"Aberdeen International Airport","city":"Aberdeen","cc":"GB","lat":57.2019,"lon":-2.1978,"big":true},{"iata":"ACA","icao":"MMAA","name":"General Juan N. Álvarez International Airport","city":"Acapulco","cc":"MX","lat":16.7571,"lon":-99.7531,"big":true},{"iata":"ACC","icao":"DGAA","name":"Kotoka International Airport","city":"Accra","cc":"GH","lat":5.6052,"lon":-0.1668,"big":true},{"iata":"ACE","icao":"GCRR","name":"César Manrique-Lanzarote Airport","city":"San Bartolomé","cc":"ES","lat":28.9455,"lon":-13.6052,"big":true},{"iata":"ADA","icao":"LTAF","name":"Adana Şakirpaşa Airport","city":"Seyhan","cc":"TR","lat":36.9822,"lon":35.2804,"big":true},{"iata":"ADB","icao":"LTBJ","name":"Adnan Menderes International Airport","city":"Gaziemir","cc":"TR","lat":38.2924,"lon":27.157,"big":true},{"iata":"ADD","icao":"HAAB","name":"Addis Ababa Bole International Airport","city":"Addis Ababa","cc":"ET","lat":8.9779,"lon":38.7993,"big":true},{"iata":"ADE","icao":"OYAA","name":"Aden International Airport","city":"Aden","cc":"YE","lat":12.8296,"lon":45.03,"big":true},{"iata":"ADJ","icao":"OJAM","name":"Marka International (Amman Civil) Airport","city":"Amman","cc":"JO","lat":31.9727,"lon":35.9916,"big":true},{"iata":"ADL","icao":"YPAD","name":"Adelaide International Airport","city":"Adelaide","cc":"AU","lat":-34.9475,"lon":138.5334,"big":true},{"iata":"ADZ","icao":"SKSP","name":"Gustavo Rojas Pinilla International Airport","city":"San Andrés","cc":"CO","lat":12.5836,"lon":-81.7112,"big":true},{"iata":"AEP","icao":"SABE","name":"Aeroparque Jorge Newbery","city":"Buenos Aires","cc":"AR","lat":-34.5594,"lon":-58.4155,"big":true},{"iata":"AER","icao":"URSS","name":"Sochi International Airport","city":"Sochi","cc":"RU","lat":43.4499,"lon":39.9566,"big":true},{"iata":"AES","icao":"ENAL","name":"Ålesund Airport","city":"Ålesund","cc":"NO","lat":62.5604,"lon":6.1108,"big":true},{"iata":"AEY","icao":"BIAR","name":"Akureyri International Airport","city":"Akureyri","cc":"IS","lat":65.6566,"lon":-18.072,"big":true},{"iata":"AGA","icao":"GMAD","name":"Al Massira Airport","city":"Agadir (Temsia)","cc":"MA","lat":30.3225,"lon":-9.412,"big":true},{"iata":"AGP","icao":"LEMG","name":"Málaga-Costa del Sol Airport","city":"Málaga","cc":"ES","lat":36.6749,"lon":-4.4991,"big":true},{"iata":"AGT","icao":"SGES","name":"Guaraní International Airport","city":"Ciudad del Este","cc":"PY","lat":-25.4572,"lon":-54.8395,"big":true},{"iata":"AGU","icao":"MMAS","name":"Aguascalientes International Airport","city":"Aguascalientes","cc":"MX","lat":21.6996,"lon":-102.3184,"big":true},{"iata":"AHB","icao":"OEAB","name":"Abha International Airport","city":"Abha","cc":"SA","lat":18.2404,"lon":42.6566,"big":true},{"iata":"AJF","icao":"OESK","name":"Al-Jawf International Airport","city":"Al-Jawf","cc":"SA","lat":29.7833,"lon":40.1009,"big":true},{"iata":"AKL","icao":"NZAA","name":"Auckland International Airport","city":"Auckland","cc":"NZ","lat":-37.012,"lon":174.7863,"big":true},{"iata":"AKX","icao":"UATT","name":"Aktobe International Airport","city":"Aktobe","cc":"KZ","lat":50.2481,"lon":57.2041,"big":true},{"iata":"ALA","icao":"UAAA","name":"Almaty International Airport","city":"Almaty","cc":"KZ","lat":43.3543,"lon":77.0428,"big":true},{"iata":"ALB","icao":"KALB","name":"Albany International Airport","city":"Albany","cc":"US","lat":42.7483,"lon":-73.8017,"big":true},{"iata":"ALC","icao":"LEAL","name":"Alicante-Elche Miguel Hernández Airport","city":"Alicante","cc":"ES","lat":38.2822,"lon":-0.5582,"big":true},{"iata":"ALG","icao":"DAAG","name":"Houari Boumediene Airport","city":"Algiers","cc":"DZ","lat":36.6939,"lon":3.2145,"big":true},{"iata":"ALP","icao":"OSAP","name":"Aleppo International Airport","city":"Aleppo","cc":"SY","lat":36.1813,"lon":37.2269,"big":true},{"iata":"AMD","icao":"VAAH","name":"Sardar Vallabh Patel International Airport","city":"Ahmedabad","cc":"IN","lat":23.0772,"lon":72.6347,"big":true},{"iata":"AMM","icao":"OJAI","name":"Queen Alia International Airport","city":"Amman","cc":"JO","lat":31.7226,"lon":35.9932,"big":true},{"iata":"AMQ","icao":"WAPP","name":"Pattimura International Airport","city":"Ambon","cc":"ID","lat":-3.7103,"lon":128.089,"big":true},{"iata":"AMS","icao":"EHAM","name":"Amsterdam Airport Schiphol","city":"Amsterdam","cc":"NL","lat":52.3086,"lon":4.7639,"big":true},{"iata":"ANC","icao":"PANC","name":"Ted Stevens Anchorage International Airport","city":"Anchorage","cc":"US","lat":61.179,"lon":-149.9926,"big":true},{"iata":"ANF","icao":"SCFA","name":"Andrés Sabella Gálvez International Airport","city":"Antofagasta","cc":"CL","lat":-23.4453,"lon":-70.4452,"big":true},{"iata":"ANU","icao":"TAPA","name":"V. C. Bird International Airport","city":"Osbourn","cc":"AG","lat":17.1367,"lon":-61.7927,"big":true},{"iata":"AOE","icao":"LTBY","name":"Hasan Polatkan Airport","city":"Eskişehir","cc":"TR","lat":39.8116,"lon":30.5193,"big":true},{"iata":"AOJ","icao":"RJSA","name":"Aomori Airport","city":"Aomori","cc":"JP","lat":40.7338,"lon":140.6895,"big":true},{"iata":"APL","icao":"FQNP","name":"Nampula Airport","city":"Nampula","cc":"MZ","lat":-15.1056,"lon":39.2818,"big":true},{"iata":"APW","icao":"NSFA","name":"Faleolo International Airport","city":"Apia","cc":"WS","lat":-13.83,"lon":-172.008,"big":true},{"iata":"AQI","icao":"OEPA","name":"Qaisumah–Hafar Al-Batin International Airport","city":"Qaisumah","cc":"SA","lat":28.3357,"lon":46.1271,"big":true},{"iata":"AQJ","icao":"OJAQ","name":"King Hussein International Airport","city":"Aqaba","cc":"JO","lat":29.6116,"lon":35.0181,"big":true},{"iata":"AQP","icao":"SPQU","name":"Rodríguez Ballón International Airport","city":"Arequipa","cc":"PE","lat":-16.3408,"lon":-71.5695,"big":true},{"iata":"ARN","icao":"ESSA","name":"Stockholm-Arlanda Airport","city":"Stockholm","cc":"SE","lat":59.6485,"lon":17.9288,"big":true},{"iata":"ASB","icao":"UTAA","name":"Ashgabat International Airport","city":"Ashgabat","cc":"TM","lat":37.9868,"lon":58.361,"big":true},{"iata":"ASF","icao":"URWA","name":"Astrakhan Narimanovo Boris M. Kustodiev International Airport","city":"Astrakhan","cc":"RU","lat":46.2828,"lon":48.0105,"big":true},{"iata":"ASK","icao":"DIYO","name":"Yamoussoukro International Airport","city":"Yamoussoukro","cc":"CI","lat":6.9032,"lon":-5.3656,"big":true},{"iata":"ASR","icao":"LTAU","name":"Kayseri Erkilet International Airport","city":"Kayseri","cc":"TR","lat":38.7704,"lon":35.4954,"big":true},{"iata":"ASU","icao":"SGAS","name":"Silvio Pettirossi International Airport","city":"Asunción","cc":"PY","lat":-25.2402,"lon":-57.5192,"big":true},{"iata":"ASW","icao":"HESN","name":"Aswan International Airport","city":"Aswan","cc":"EG","lat":23.9611,"lon":32.8204,"big":true},{"iata":"ATH","icao":"LGAV","name":"Athens Eleftherios Venizelos International Airport","city":"Spata-Artemida","cc":"GR","lat":37.9364,"lon":23.9445,"big":true},{"iata":"ATL","icao":"KATL","name":"Hartsfield Jackson Atlanta International Airport","city":"Atlanta","cc":"US","lat":33.6367,"lon":-84.4281,"big":true},{"iata":"ATQ","icao":"VIAR","name":"Sri Guru Ram Das Ji International Airport","city":"Amritsar","cc":"IN","lat":31.7096,"lon":74.7973,"big":true},{"iata":"ATZ","icao":"HEAT","name":"Asyut International Airport","city":"Asyut","cc":"EG","lat":27.046,"lon":31.0128,"big":true},{"iata":"AUA","icao":"TNCA","name":"Queen Beatrix International Airport","city":"Oranjestad","cc":"AW","lat":12.5011,"lon":-70.0143,"big":true},{"iata":"AUH","icao":"OMAA","name":"Zayed International Airport","city":"Abu Dhabi","cc":"AE","lat":24.441,"lon":54.6492,"big":true},{"iata":"AUS","icao":"KAUS","name":"Austin Bergstrom International Airport","city":"Austin","cc":"US","lat":30.1975,"lon":-97.662,"big":true},{"iata":"AVV","icao":"YMAV","name":"Melbourne Avalon International Airport","city":"Geelong/Melbourne","cc":"AU","lat":-38.0403,"lon":144.4672,"big":true},{"iata":"AWA","icao":"HALA","name":"Hawassa International Airport","city":"Hawassa","cc":"ET","lat":7.1006,"lon":38.3965,"big":true},{"iata":"AWZ","icao":"OIAW","name":"Qasem Soleimani International Airport","city":"Ahvaz","cc":"IR","lat":31.3364,"lon":48.7638,"big":true},{"iata":"AYT","icao":"LTAI","name":"Antalya International Airport","city":"Antalya","cc":"TR","lat":36.8987,"lon":30.8005,"big":true},{"iata":"AZI","icao":"OMAD","name":"Al Bateen Executive Airport","city":"Abu Dhabi","cc":"AE","lat":24.4271,"lon":54.4599,"big":true},{"iata":"BAH","icao":"OBBI","name":"Bahrain International Airport","city":"Manama","cc":"BH","lat":26.2673,"lon":50.6376,"big":true},{"iata":"BAQ","icao":"SKBQ","name":"Ernesto Cortissoz International Airport","city":"Barranquilla","cc":"CO","lat":10.8896,"lon":-74.7808,"big":true},{"iata":"BAV","icao":"ZBOW","name":"Baotou Donghe International Airport","city":"Baotou","cc":"CN","lat":40.56,"lon":109.997,"big":true},{"iata":"BAX","icao":"UNBB","name":"Barnaul Gherman Titov International Airport","city":"Barnaul","cc":"RU","lat":53.3613,"lon":83.5397,"big":true},{"iata":"BBI","icao":"VEBS","name":"Biju Patnaik International Airport","city":"Bhubaneswar","cc":"IN","lat":20.251,"lon":85.8147,"big":true},{"iata":"BBK","icao":"FBKE","name":"Kasane International Airport","city":"Kasane","cc":"BW","lat":-17.8317,"lon":25.1662,"big":true},{"iata":"BBU","icao":"LRBS","name":"Bucharest Băneasa Aurel Vlaicu International Airport","city":"Bucharest","cc":"RO","lat":44.5031,"lon":26.1029,"big":true},{"iata":"BCD","icao":"RPVB","name":"Bacolod-Silay International Airport","city":"Bacolod City","cc":"PH","lat":10.7762,"lon":123.0189,"big":true},{"iata":"BCM","icao":"LRBC","name":"Bacău George Enescu International  Airport","city":"Bacău","cc":"RO","lat":46.5219,"lon":26.9103,"big":true},{"iata":"BCN","icao":"LEBL","name":"Josep Tarradellas Barcelona-El Prat Airport","city":"Barcelona","cc":"ES","lat":41.2971,"lon":2.0785,"big":true},{"iata":"BCU","icao":"DNBC","name":"Sir Abubakar Tafawa Balewa Bauchi State International Airport","city":"Bauchi","cc":"NG","lat":10.4828,"lon":9.744,"big":true},{"iata":"BDA","icao":"TXKF","name":"L.F. Wade International Airport","city":"Hamilton","cc":"BM","lat":32.3638,"lon":-64.6782,"big":true},{"iata":"BDJ","icao":"WAOO","name":"Syamsudin Noor International Airport","city":"Banjarbaru","cc":"ID","lat":-3.4401,"lon":114.7612,"big":true},{"iata":"BDL","icao":"KBDL","name":"Bradley International Airport","city":"Hartford","cc":"US","lat":41.9386,"lon":-72.688,"big":true},{"iata":"BDQ","icao":"VABO","name":"Vadodara International Airport","city":"Vadodara","cc":"IN","lat":22.3362,"lon":73.2263,"big":true},{"iata":"BDS","icao":"LIBR","name":"Brindisi Airport","city":"Brindisi","cc":"IT","lat":40.6576,"lon":17.947,"big":true},{"iata":"BEG","icao":"LYBE","name":"Belgrade Nikola Tesla Airport","city":"Belgrade","cc":"RS","lat":44.8184,"lon":20.3091,"big":true},{"iata":"BEL","icao":"SBBE","name":"Val de Cans/Júlio Cezar Ribeiro International Airport","city":"Belém","cc":"BR","lat":-1.3793,"lon":-48.4762,"big":true},{"iata":"BEM","icao":"GMMD","name":"Beni Mellal Airport","city":"Oulad Yaich","cc":"MA","lat":32.4019,"lon":-6.3159,"big":true},{"iata":"BEN","icao":"HLLB","name":"Benina International Airport","city":"Benina","cc":"LY","lat":32.0968,"lon":20.2695,"big":true},{"iata":"BER","icao":"EDDB","name":"Berlin Brandenburg Airport","city":"Berlin","cc":"DE","lat":52.3617,"lon":13.5023,"big":true},{"iata":"BES","icao":"LFRB","name":"Brest Bretagne airport","city":"Brest","cc":"FR","lat":48.4479,"lon":-4.4185,"big":true},{"iata":"BEW","icao":"FQBR","name":"Beira International Airport","city":"Beira","cc":"MZ","lat":-19.7964,"lon":34.9076,"big":true},{"iata":"BEY","icao":"OLBA","name":"Beirut Rafic Hariri International Airport","city":"Beirut","cc":"LB","lat":33.8198,"lon":35.4874,"big":true},{"iata":"BFN","icao":"FABL","name":"Bram Fischer International Airport","city":"Bloemfontein","cc":"ZA","lat":-29.0927,"lon":26.3024,"big":true},{"iata":"BFS","icao":"EGAA","name":"Belfast International Airport","city":"Belfast","cc":"GB","lat":54.6575,"lon":-6.2158,"big":true},{"iata":"BGF","icao":"FEFF","name":"Bangui M'Poko International Airport","city":"Bangui","cc":"CF","lat":4.3985,"lon":18.5188,"big":true},{"iata":"BGI","icao":"TBPB","name":"Grantley Adams International Airport","city":"Bridgetown","cc":"BB","lat":13.0747,"lon":-59.491,"big":true},{"iata":"BGO","icao":"ENBR","name":"Bergen Airport, Flesland","city":"Bergen","cc":"NO","lat":60.2934,"lon":5.2181,"big":true},{"iata":"BGW","icao":"ORBI","name":"Baghdad International Airport / New Al Muthana Air Base","city":"Baghdad","cc":"IQ","lat":33.2625,"lon":44.2346,"big":true},{"iata":"BGY","icao":"LIME","name":"Il Caravaggio International Airport","city":"Orio al Serio (BG)","cc":"IT","lat":45.6694,"lon":9.7089,"big":true},{"iata":"BHK","icao":"UZSB","name":"Bukhara International Airport","city":"Bukhara","cc":"UZ","lat":39.7753,"lon":64.4823,"big":true},{"iata":"BHM","icao":"KBHM","name":"Birmingham-Shuttlesworth International Airport","city":"Birmingham","cc":"US","lat":33.5629,"lon":-86.7507,"big":true},{"iata":"BHO","icao":"VABP","name":"Raja Bhoj International Airport","city":"Bhopal","cc":"IN","lat":23.2875,"lon":77.3374,"big":true},{"iata":"BHX","icao":"EGBB","name":"Birmingham Airport","city":"Birmingham, West Midlands","cc":"GB","lat":52.4539,"lon":-1.748,"big":true},{"iata":"BIA","icao":"LFKB","name":"Bastia-Poretta International airport","city":"Bastia","cc":"FR","lat":42.5527,"lon":9.4837,"big":true},{"iata":"BIO","icao":"LEBB","name":"Bilbao Airport","city":"Bilbao","cc":"ES","lat":43.3011,"lon":-2.9106,"big":true},{"iata":"BJA","icao":"DAAE","name":"Soummam–Abane Ramdane Airport","city":"Béjaïa","cc":"DZ","lat":36.7125,"lon":5.0699,"big":true},{"iata":"BJL","icao":"GBYD","name":"Banjul International Airport","city":"Banjul (Yundum)","cc":"GM","lat":13.338,"lon":-16.6522,"big":true},{"iata":"BJM","icao":"HBBA","name":"Bujumbura Melchior Ndadaye International Airport","city":"Bujumbura","cc":"BI","lat":-3.324,"lon":29.3185,"big":true},{"iata":"BJV","icao":"LTFE","name":"Milas Bodrum International Airport","city":"Bodrum","cc":"TR","lat":37.2493,"lon":27.664,"big":true},{"iata":"BJX","icao":"MMLO","name":"Guanajuato International Airport","city":"Silao","cc":"MX","lat":20.9927,"lon":-101.4803,"big":true},{"iata":"BKI","icao":"WBKK","name":"Kota Kinabalu International Airport","city":"Kota Kinabalu","cc":"MY","lat":5.9327,"lon":116.0493,"big":true},{"iata":"BKK","icao":"VTBS","name":"Suvarnabhumi Airport","city":"Bangkok","cc":"TH","lat":13.6811,"lon":100.747,"big":true},{"iata":"BKO","icao":"GABS","name":"Modibo Keita International Airport","city":"Bamako","cc":"ML","lat":12.5335,"lon":-7.9499,"big":true},{"iata":"BLA","icao":"SVBC","name":"General José Antonio Anzoategui International Airport","city":"Barcelona","cc":"VE","lat":10.1111,"lon":-64.6922,"big":true},{"iata":"BLJ","icao":"DABT","name":"Batna Mostefa Ben Boulaid Airport","city":"Batna","cc":"DZ","lat":35.7521,"lon":6.3086,"big":true},{"iata":"BLL","icao":"EKBI","name":"Billund Airport","city":"Billund","cc":"DK","lat":55.7403,"lon":9.157,"big":true},{"iata":"BLQ","icao":"LIPE","name":"Bologna Guglielmo Marconi Airport","city":"Bologna","cc":"IT","lat":44.5354,"lon":11.2887,"big":true},{"iata":"BLR","icao":"VOBL","name":"Kempegowda International Airport Bengaluru","city":"Bengaluru","cc":"IN","lat":13.1979,"lon":77.7063,"big":true},{"iata":"BLZ","icao":"FWCL","name":"Chileka International Airport","city":"Blantyre","cc":"MW","lat":-15.6772,"lon":34.9723,"big":true},{"iata":"BME","icao":"YBRM","name":"Broome International Airport","city":"Broome","cc":"AU","lat":-17.9492,"lon":122.2283,"big":true},{"iata":"BNA","icao":"KBNA","name":"Nashville International Airport","city":"Nashville","cc":"US","lat":36.1245,"lon":-86.6782,"big":true},{"iata":"BND","icao":"OIKB","name":"Bandar Abbas International Airport","city":"Bandar Abbas","cc":"IR","lat":27.2183,"lon":56.3778,"big":true},{"iata":"BNE","icao":"YBBN","name":"Brisbane International Airport","city":"Brisbane","cc":"AU","lat":-27.3842,"lon":153.117,"big":true},{"iata":"BNX","icao":"LQBK","name":"Banja Luka International Airport","city":"Mahovljani","cc":"BA","lat":44.9414,"lon":17.2975,"big":true},{"iata":"BOD","icao":"LFBD","name":"Bordeaux–Mérignac Airport","city":"Bordeaux","cc":"FR","lat":44.8287,"lon":-0.7154,"big":true},{"iata":"BOG","icao":"SKBO","name":"El Dorado International Airport","city":"Bogota","cc":"CO","lat":4.7016,"lon":-74.1469,"big":true},{"iata":"BOI","icao":"KBOI","name":"Boise Air Terminal/Gowen Field","city":"Boise","cc":"US","lat":43.5644,"lon":-116.223,"big":true},{"iata":"BOJ","icao":"LBBG","name":"Burgas Airport","city":"Burgas","cc":"BG","lat":42.5699,"lon":27.5152,"big":true},{"iata":"BOM","icao":"VABB","name":"Chhatrapati Shivaji Maharaj International Airport","city":"Mumbai","cc":"IN","lat":19.0887,"lon":72.8679,"big":true},{"iata":"BON","icao":"TNCB","name":"Flamingo International Airport","city":"Kralendijk","cc":"BQ","lat":12.131,"lon":-68.2685,"big":true},{"iata":"BOO","icao":"ENBO","name":"Bodø Airport","city":"Bodø","cc":"NO","lat":67.2692,"lon":14.3653,"big":true},{"iata":"BOS","icao":"KBOS","name":"Boston Logan International Airport","city":"Boston","cc":"US","lat":42.362,"lon":-71.0079,"big":true},{"iata":"BOY","icao":"DFOO","name":"Bobo Dioulasso Airport","city":"Bobo Dioulasso","cc":"BF","lat":11.1601,"lon":-4.331,"big":true},{"iata":"BPN","icao":"WALL","name":"Sultan Aji Muhammad Sulaiman Sepinggan International Airport","city":"Balikpapan","cc":"ID","lat":-1.2683,"lon":116.8945,"big":true},{"iata":"BPS","icao":"SBPS","name":"Porto Seguro International Airport","city":"Porto Seguro","cc":"BR","lat":-16.4384,"lon":-39.0806,"big":true},{"iata":"BQT","icao":"UMBB","name":"Brest International Airport","city":"Brest","cc":"BY","lat":52.1081,"lon":23.8968,"big":true},{"iata":"BRC","icao":"SAZS","name":"Teniente Luis Candelaria International Airport","city":"San Carlos de Bariloche","cc":"AR","lat":-41.1512,"lon":-71.1575,"big":true},{"iata":"BRE","icao":"EDDW","name":"Bremen Airport","city":"Bremen","cc":"DE","lat":53.0468,"lon":8.7893,"big":true},{"iata":"BRI","icao":"LIBD","name":"Bari Karol Wojtyła International Airport","city":"Bari","cc":"IT","lat":41.1389,"lon":16.7606,"big":true},{"iata":"BRM","icao":"SVBM","name":"Jacinto Lara International Airport","city":"Barquisimeto","cc":"VE","lat":10.0427,"lon":-69.3586,"big":true},{"iata":"BRS","icao":"EGGD","name":"Bristol Airport","city":"Bristol","cc":"GB","lat":51.3823,"lon":-2.7165,"big":true},{"iata":"BRU","icao":"EBBR","name":"Brussels Airport","city":"Zaventem","cc":"BE","lat":50.9014,"lon":4.4844,"big":true},{"iata":"BSA","icao":"HCMF","name":"Bender Qassim International Airport","city":"Bosaso","cc":"SO","lat":11.2752,"lon":49.1392,"big":true},{"iata":"BSB","icao":"SBBR","name":"Presidente Juscelino Kubitschek International Airport","city":"Brasília","cc":"BR","lat":-15.8692,"lon":-47.9208,"big":true},{"iata":"BSG","icao":"FGBT","name":"Bata International Airport","city":"Bata","cc":"GQ","lat":1.9055,"lon":9.8057,"big":true},{"iata":"BSK","icao":"DAUB","name":"Biskra - Mohamed Khider Airport","city":"Biskra","cc":"DZ","lat":34.7932,"lon":5.7389,"big":true},{"iata":"BSL","icao":"LFSB","name":"EuroAirport Basel–Mulhouse–Freiburg","city":"Bâle / Mulhouse","cc":"FR","lat":47.6007,"lon":7.5211,"big":true},{"iata":"BSR","icao":"ORMM","name":"Basra International Airport","city":"Basra","cc":"IQ","lat":30.5491,"lon":47.6621,"big":true},{"iata":"BSZ","icao":"UCFM","name":"Manas International Airport","city":"Bishkek","cc":"KG","lat":43.0613,"lon":74.4776,"big":true},{"iata":"BTH","icao":"WIDD","name":"Hang Nadim International Airport","city":"Batam","cc":"ID","lat":1.121,"lon":104.119,"big":true},{"iata":"BTJ","icao":"WITT","name":"Sultan Iskandar Muda International Airport","city":"Banda Aceh","cc":"ID","lat":5.5251,"lon":95.42,"big":true},{"iata":"BTS","icao":"LZIB","name":"M. R. Štefánik Airport","city":"Bratislava","cc":"SK","lat":48.1702,"lon":17.2127,"big":true},{"iata":"BUD","icao":"LHBP","name":"Budapest Liszt Ferenc International Airport","city":"Budapest","cc":"HU","lat":47.4302,"lon":19.2624,"big":true},{"iata":"BUF","icao":"KBUF","name":"Buffalo Niagara International Airport","city":"Buffalo","cc":"US","lat":42.9405,"lon":-78.7322,"big":true},{"iata":"BUQ","icao":"FVJN","name":"Joshua Mqabuko Nkomo International Airport","city":"Bulawayo","cc":"ZW","lat":-20.0163,"lon":28.6229,"big":true},{"iata":"BUR","icao":"KBUR","name":"Hollywood Burbank/Bob Hope Airport","city":"Burbank","cc":"US","lat":34.2028,"lon":-118.3581,"big":true},{"iata":"BUS","icao":"UGSB","name":"Alexander Kartveli Batumi International Airport","city":"Batumi","cc":"GE","lat":41.6094,"lon":41.6003,"big":true},{"iata":"BVA","icao":"LFOB","name":"Beauvais-Tillé airport","city":"Beauvais","cc":"FR","lat":49.4544,"lon":2.1128,"big":true},{"iata":"BVB","icao":"SBBV","name":"Atlas Brasil Cantanhede International Airport","city":"Boa Vista","cc":"BR","lat":2.8462,"lon":-60.6906,"big":true},{"iata":"BVC","icao":"GVBA","name":"Aristides Pereira International Airport","city":"Rabil","cc":"CV","lat":16.1365,"lon":-22.8889,"big":true},{"iata":"BWA","icao":"VNBW","name":"Gautam Buddha International Airport","city":"Siddharthanagar (Bhairahawa)","cc":"NP","lat":27.5046,"lon":83.4104,"big":true},{"iata":"BWI","icao":"KBWI","name":"Baltimore/Washington International Thurgood Marshall Airport","city":"Baltimore","cc":"US","lat":39.1754,"lon":-76.6683,"big":true},{"iata":"BWN","icao":"WBSB","name":"Brunei International Airport","city":"Bandar Seri Begawan","cc":"BN","lat":4.9442,"lon":114.928,"big":true},{"iata":"BXY","icao":"UAOL","name":"Baikonur Krayniy International Airport","city":"Baikonur","cc":"KZ","lat":45.622,"lon":63.2108,"big":true},{"iata":"BZE","icao":"MZBZ","name":"Philip S. W. Goldson International Airport","city":"Belize City","cc":"BZ","lat":17.54,"lon":-88.3036,"big":true},{"iata":"BZV","icao":"FCBB","name":"Maya-Maya International Airport","city":"Brazzaville","cc":"CG","lat":-4.2517,"lon":15.253,"big":true},{"iata":"CAG","icao":"LIEE","name":"Cagliari Elmas Airport","city":"Cagliari","cc":"IT","lat":39.2515,"lon":9.0543,"big":true},{"iata":"CAI","icao":"HECA","name":"Cairo International Airport","city":"Cairo","cc":"EG","lat":30.1115,"lon":31.3967,"big":true},{"iata":"CAN","icao":"ZGGG","name":"Guangzhou Baiyun International Airport","city":"Guangzhou (Huadu)","cc":"CN","lat":23.3924,"lon":113.299,"big":true},{"iata":"CAP","icao":"MTCH","name":"Cap Haitien International Airport","city":"Cap Haitien","cc":"HT","lat":19.7255,"lon":-72.2007,"big":true},{"iata":"CAY","icao":"SOCA","name":"Cayenne – Félix Eboué Airport","city":"Matoury","cc":"GF","lat":4.82,"lon":-52.3613,"big":true},{"iata":"CBB","icao":"SLCB","name":"Jorge Wilsterman International Airport","city":"Cochabamba","cc":"BO","lat":-17.4211,"lon":-66.1771,"big":true},{"iata":"CCJ","icao":"VOCL","name":"Calicut International Airport","city":"Calicut","cc":"IN","lat":11.136,"lon":75.9552,"big":true},{"iata":"CCK","icao":"YPCC","name":"Cocos (Keeling) Islands Airport","city":"West Island","cc":"CC","lat":-12.1922,"lon":96.8341,"big":true},{"iata":"CCP","icao":"SCIE","name":"Carriel Sur International Airport","city":"Concepcion","cc":"CL","lat":-36.7724,"lon":-73.0628,"big":true},{"iata":"CCS","icao":"SVMI","name":"Maiquetía Simón Bolívar International Airport","city":"Maiquetía","cc":"VE","lat":10.6022,"lon":-66.9912,"big":true},{"iata":"CCU","icao":"VECC","name":"Netaji Subhash Chandra Bose International Airport","city":"Kolkata","cc":"IN","lat":22.654,"lon":88.4476,"big":true},{"iata":"CDG","icao":"LFPG","name":"Charles de Gaulle International Airport","city":"Paris (Roissy-en-France, Val-d'Oise)","cc":"FR","lat":49.009,"lon":2.5541,"big":true},{"iata":"CEB","icao":"RPVM","name":"Mactan Cebu International Airport","city":"Cebu City/Lapu-Lapu City","cc":"PH","lat":10.3093,"lon":123.9797,"big":true},{"iata":"CEI","icao":"VTCT","name":"Mae Fah Luang - Chiang Rai International Airport","city":"Chiang Rai","cc":"TH","lat":19.9523,"lon":99.8829,"big":true},{"iata":"CEK","icao":"USCC","name":"Kurchatov Chelyabinsk International Airport","city":"Chelyabinsk","cc":"RU","lat":55.3031,"lon":61.5049,"big":true},{"iata":"CFE","icao":"LFLC","name":"Clermont-Ferrand Auvergne airport","city":"Clermont-Ferrand","cc":"FR","lat":45.7867,"lon":3.1692,"big":true},{"iata":"CFK","icao":"DAOI","name":"Chlef Aboubakr Belkaid International Airport","city":"Chlef","cc":"DZ","lat":36.2166,"lon":1.3411,"big":true},{"iata":"CFU","icao":"LGKR","name":"Corfu Ioannis Kapodistrias International Airport","city":"Kerkyra (Corfu)","cc":"GR","lat":39.6014,"lon":19.9122,"big":true},{"iata":"CGB","icao":"SBCY","name":"Várzea Grande–Marechal Rondon International Airport","city":"Cuiabá","cc":"BR","lat":-15.6529,"lon":-56.1167,"big":true},{"iata":"CGH","icao":"SBSP","name":"Congonhas–Deputado Freitas Nobre Airport","city":"São Paulo","cc":"BR","lat":-23.6277,"lon":-46.6546,"big":true},{"iata":"CGK","icao":"WIII","name":"Soekarno-Hatta International Airport","city":"Jakarta","cc":"ID","lat":-6.1256,"lon":106.656,"big":true},{"iata":"CGN","icao":"EDDK","name":"Cologne Bonn Airport","city":"Köln (Cologne)","cc":"DE","lat":50.8659,"lon":7.1427,"big":true},{"iata":"CGO","icao":"ZHCC","name":"Zhengzhou Xinzheng International Airport","city":"Zhengzhou","cc":"CN","lat":34.5265,"lon":113.8492,"big":true},{"iata":"CGP","icao":"VGEG","name":"Shah Amanat International Airport","city":"Chattogram (Chittagong)","cc":"BD","lat":22.2496,"lon":91.8133,"big":true},{"iata":"CGQ","icao":"ZYCC","name":"Changchun Longjia International Airport","city":"Changchun","cc":"CN","lat":43.9962,"lon":125.685,"big":true},{"iata":"CGY","icao":"RPMY","name":"Laguindingan International Airport","city":"Laguindingan","cc":"PH","lat":8.6122,"lon":124.4565,"big":true},{"iata":"CHC","icao":"NZCH","name":"Christchurch International Airport","city":"Christchurch","cc":"NZ","lat":-43.489,"lon":172.5321,"big":true},{"iata":"CHQ","icao":"LGSA","name":"Chania International Airport","city":"Souda","cc":"GR","lat":35.5312,"lon":24.1507,"big":true},{"iata":"CHS","icao":"KCHS","name":"Charleston International Airport","city":"Charleston","cc":"US","lat":32.8962,"lon":-80.0382,"big":true},{"iata":"CIA","icao":"LIRA","name":"Ciampino–G. B. Pastine International Airport","city":"Rome","cc":"IT","lat":41.7988,"lon":12.5953,"big":true},{"iata":"CIT","icao":"UAII","name":"Shymkent International Airport","city":"Shymkent","cc":"KZ","lat":42.365,"lon":69.4756,"big":true},{"iata":"CIX","icao":"SPHI","name":"Capitán FAP José A. Quiñones González International Airport","city":"Chiclayo","cc":"PE","lat":-6.7892,"lon":-79.8283,"big":true},{"iata":"CJB","icao":"VOCB","name":"Coimbatore International Airport","city":"Coimbatore","cc":"IN","lat":11.03,"lon":77.0434,"big":true},{"iata":"CJJ","icao":"RKTU","name":"Cheongju International Airport/Cheongju Air Base (K-59/G-513)","city":"Cheongju","cc":"KR","lat":36.7156,"lon":127.5003,"big":true},{"iata":"CJS","icao":"MMCS","name":"Abraham González International Airport","city":"Ciudad Juárez","cc":"MX","lat":31.6367,"lon":-106.4285,"big":true},{"iata":"CJU","icao":"RKPC","name":"Jeju International Airport","city":"Jeju City","cc":"KR","lat":33.5121,"lon":126.4925,"big":true},{"iata":"CKG","icao":"ZUCK","name":"Chongqing Jiangbei International Airport","city":"Chongqing","cc":"CN","lat":29.7123,"lon":106.6519,"big":true},{"iata":"CKY","icao":"GUCY","name":"Ahmed Sékou Touré International Airport","city":"Conakry","cc":"GN","lat":9.5769,"lon":-13.612,"big":true},{"iata":"CLE","icao":"KCLE","name":"Cleveland Hopkins International Airport","city":"Cleveland","cc":"US","lat":41.4117,"lon":-81.8498,"big":true},{"iata":"CLJ","icao":"LRCL","name":"Avram Iancu Cluj International Airport","city":"Cluj-Napoca","cc":"RO","lat":46.786,"lon":23.6857,"big":true},{"iata":"CLO","icao":"SKCL","name":"Alfonso Bonilla Aragon International Airport","city":"Cali","cc":"CO","lat":3.5427,"lon":-76.3819,"big":true},{"iata":"CLT","icao":"KCLT","name":"Charlotte Douglas International Airport","city":"Charlotte","cc":"US","lat":35.214,"lon":-80.9431,"big":true},{"iata":"CMB","icao":"VCBI","name":"Bandaranaike International Colombo Airport","city":"Colombo","cc":"LK","lat":7.1808,"lon":79.8841,"big":true},{"iata":"CMH","icao":"KCMH","name":"John Glenn Columbus International Airport","city":"Columbus","cc":"US","lat":39.998,"lon":-82.8919,"big":true},{"iata":"CMN","icao":"GMMN","name":"Mohammed V International Airport","city":"Casablanca","cc":"MA","lat":33.3675,"lon":-7.59,"big":true},{"iata":"CMW","icao":"MUCM","name":"Ignacio Agramonte International Airport","city":"Camaguey","cc":"CU","lat":21.4199,"lon":-77.848,"big":true},{"iata":"CND","icao":"LRCK","name":"Mihail Kogălniceanu International Airport","city":"Constanța","cc":"RO","lat":44.3622,"lon":28.4883,"big":true},{"iata":"CNF","icao":"SBCF","name":"Tancredo Neves International Airport","city":"Belo Horizonte","cc":"BR","lat":-19.6357,"lon":-43.9669,"big":true},{"iata":"CNN","icao":"VOKN","name":"Kannur International Airport","city":"Kannur","cc":"IN","lat":11.9163,"lon":75.545,"big":true},{"iata":"CNS","icao":"YBCS","name":"Cairns International Airport","city":"Cairns","cc":"AU","lat":-16.8789,"lon":145.7495,"big":true},{"iata":"CNX","icao":"VTCC","name":"Chiang Mai International Airport","city":"Chiang Mai","cc":"TH","lat":18.7668,"lon":98.9626,"big":true},{"iata":"COK","icao":"VOCI","name":"Cochin International Airport","city":"Kochi","cc":"IN","lat":10.151,"lon":76.4008,"big":true},{"iata":"COO","icao":"DBBB","name":"Cotonou Cadjehoun International Airport","city":"Cotonou","cc":"BJ","lat":6.3572,"lon":2.3843,"big":true},{"iata":"COR","icao":"SACO","name":"Ingeniero Aeronáutico Ambrosio L.V. Taravella International Airport","city":"Cordoba","cc":"AR","lat":-31.3123,"lon":-64.2083,"big":true},{"iata":"COS","icao":"KCOS","name":"City of Colorado Springs Municipal Airport","city":"Colorado Springs","cc":"US","lat":38.8058,"lon":-104.701,"big":true},{"iata":"COV","icao":"LTDB","name":"Çukurova International Airport","city":"Tarsus","cc":"TR","lat":36.8915,"lon":35.0712,"big":true},{"iata":"CPH","icao":"EKCH","name":"Copenhagen Kastrup Airport","city":"Copenhagen","cc":"DK","lat":55.6179,"lon":12.656,"big":true},{"iata":"CPT","icao":"FACT","name":"Cape Town International Airport","city":"Cape Town","cc":"ZA","lat":-33.974,"lon":18.6043,"big":true},{"iata":"CRA","icao":"LRCV","name":"Craiova International Airport","city":"Craiova","cc":"RO","lat":44.3181,"lon":23.8886,"big":true},{"iata":"CRD","icao":"SAVC","name":"General Enrique Mosconi International Airport","city":"Comodoro Rivadavia","cc":"AR","lat":-45.7869,"lon":-67.4634,"big":true},{"iata":"CRK","icao":"RPLC","name":"Clark International Airport / Clark Air Base","city":"Mabalacat","cc":"PH","lat":15.186,"lon":120.56,"big":true},{"iata":"CRL","icao":"EBCI","name":"Brussels South Charleroi Airport","city":"Charleroi","cc":"BE","lat":50.462,"lon":4.4596,"big":true},{"iata":"CRZ","icao":"UTAV","name":"Türkmenabat International Airport","city":"Türkmenabat","cc":"TM","lat":38.9307,"lon":63.564,"big":true},{"iata":"CSX","icao":"ZGHA","name":"Changsha Huanghua International Airport","city":"Changsha (Changsha)","cc":"CN","lat":28.1892,"lon":113.22,"big":true},{"iata":"CTA","icao":"LICC","name":"Catania-Fontanarossa Airport","city":"Catania","cc":"IT","lat":37.4668,"lon":15.0664,"big":true},{"iata":"CTG","icao":"SKCG","name":"Rafael Nuñez International Airport","city":"Cartagena","cc":"CO","lat":10.4424,"lon":-75.513,"big":true},{"iata":"CTS","icao":"RJCC","name":"New Chitose Airport","city":"Sapporo","cc":"JP","lat":42.7748,"lon":141.6904,"big":true},{"iata":"CTU","icao":"ZUUU","name":"Chengdu Shuangliu International Airport","city":"Chengdu (Shuangliu)","cc":"CN","lat":30.5583,"lon":103.946,"big":true},{"iata":"CUL","icao":"MMCL","name":"Bachigualato Federal International Airport","city":"Culiacán","cc":"MX","lat":24.765,"lon":-107.4752,"big":true},{"iata":"CUN","icao":"MMUN","name":"Cancún International Airport","city":"Cancún","cc":"MX","lat":21.0408,"lon":-86.8735,"big":true},{"iata":"CUR","icao":"TNCC","name":"Hato International Airport","city":"Willemstad","cc":"CW","lat":12.1889,"lon":-68.9598,"big":true},{"iata":"CUU","icao":"MMCU","name":"General Roberto Fierro Villalobos International Airport","city":"Chihuahua","cc":"MX","lat":28.7026,"lon":-105.9638,"big":true},{"iata":"CUZ","icao":"SPZO","name":"Alejandro Velasco Astete International Airport","city":"Cusco","cc":"PE","lat":-13.5357,"lon":-71.9388,"big":true},{"iata":"CVG","icao":"KCVG","name":"Cincinnati Northern Kentucky International Airport","city":"Cincinnati / Covington","cc":"US","lat":39.0488,"lon":-84.6678,"big":true},{"iata":"CWB","icao":"SBCT","name":"Curitiba-Afonso Pena International Airport","city":"Curitiba","cc":"BR","lat":-25.5285,"lon":-49.1758,"big":true},{"iata":"CWL","icao":"EGFF","name":"Cardiff International Airport","city":"Cardiff","cc":"GB","lat":51.3967,"lon":-3.3433,"big":true},{"iata":"CXI","icao":"PLCH","name":"Cassidy International Airport","city":"Kiritimati","cc":"KI","lat":1.9863,"lon":-157.35,"big":true},{"iata":"CXR","icao":"VVCR","name":"Cam Ranh International Airport / Cam Ranh Air Base","city":"Nha Trang/nha Trang aiurportCam Ranh","cc":"VN","lat":11.9982,"lon":109.219,"big":true},{"iata":"CZL","icao":"DABC","name":"Mohamed Boudiaf International Airport","city":"Constantine","cc":"DZ","lat":36.276,"lon":6.6204,"big":true},{"iata":"CZM","icao":"MMCZ","name":"Cozumel International Airport","city":"Cozumel","cc":"MX","lat":20.5149,"lon":-86.9285,"big":true},{"iata":"DAC","icao":"VGHS","name":"Hazrat Shahjalal International Airport","city":"Dhaka","cc":"BD","lat":23.8433,"lon":90.3978,"big":true},{"iata":"DAD","icao":"VVDN","name":"Da Nang International Airport","city":"Da Nang","cc":"VN","lat":16.0439,"lon":108.199,"big":true},{"iata":"DAL","icao":"KDAL","name":"Dallas Love Field","city":"Dallas","cc":"US","lat":32.8448,"lon":-96.8477,"big":true},{"iata":"DAM","icao":"OSDI","name":"Damascus International Airport","city":"Damascus","cc":"SY","lat":33.4115,"lon":36.5156,"big":true},{"iata":"DAR","icao":"HTDA","name":"Julius Nyerere International Airport","city":"Dar es Salaam","cc":"TZ","lat":-6.8735,"lon":39.2073,"big":true},{"iata":"DAT","icao":"ZBDT","name":"Datong Yungang International Airport","city":"Datong","cc":"CN","lat":40.0614,"lon":113.4805,"big":true},{"iata":"DBB","icao":"HEAL","name":"El Alamein International Airport","city":"El Alamein","cc":"EG","lat":30.9243,"lon":28.4616,"big":true},{"iata":"DBV","icao":"LDDU","name":"Dubrovnik Ruđer Bošković Airport","city":"Dubrovnik","cc":"HR","lat":42.5622,"lon":18.2655,"big":true},{"iata":"DCA","icao":"KDCA","name":"Ronald Reagan Washington National Airport","city":"Washington","cc":"US","lat":38.8521,"lon":-77.0377,"big":true},{"iata":"DEB","icao":"LHDC","name":"Debrecen International Airport","city":"Debrecen","cc":"HU","lat":47.4895,"lon":21.6163,"big":true},{"iata":"DEL","icao":"VIDP","name":"Indira Gandhi International Airport","city":"New Delhi","cc":"IN","lat":28.5556,"lon":77.0952,"big":true},{"iata":"DEN","icao":"KDEN","name":"Denver International Airport","city":"Denver","cc":"US","lat":39.86,"lon":-104.6738,"big":true},{"iata":"DFW","icao":"KDFW","name":"Dallas Fort Worth International Airport","city":"Dallas-Fort Worth","cc":"US","lat":32.8968,"lon":-97.038,"big":true},{"iata":"DHA","icao":"OEDR","name":"King Abdulaziz Air Base","city":"Dhahran","cc":"SA","lat":26.2654,"lon":50.152,"big":true},{"iata":"DIA","icao":"OTBD","name":"Doha International Airport","city":"Doha","cc":"QA","lat":25.2594,"lon":51.5655,"big":true},{"iata":"DIL","icao":"WPDL","name":"Presidente Nicolau Lobato International Airport","city":"Dili","cc":"TL","lat":-8.5466,"lon":125.5245,"big":true},{"iata":"DIR","icao":"HADR","name":"Aba Tenna Dejazmach Yilma International Airport","city":"Dire Dawa","cc":"ET","lat":9.6235,"lon":41.855,"big":true},{"iata":"DJE","icao":"DTTJ","name":"Djerba Zarzis International Airport","city":"Mellita","cc":"TN","lat":33.8737,"lon":10.7773,"big":true},{"iata":"DJG","icao":"DAAJ","name":"Tiska Djanet Airport","city":"Djanet","cc":"DZ","lat":24.2854,"lon":9.4637,"big":true},{"iata":"DJJ","icao":"WAJJ","name":"Dortheys Hiyo Eluay International Airport","city":"Sentani","cc":"ID","lat":-2.5796,"lon":140.5199,"big":true},{"iata":"DKR","icao":"GOOY","name":"Léopold Sédar Senghor International Airport","city":"Dakar","cc":"SN","lat":14.7423,"lon":-17.4792,"big":true},{"iata":"DLA","icao":"FKKD","name":"Douala International Airport","city":"Douala","cc":"CM","lat":4.0061,"lon":9.7195,"big":true},{"iata":"DLC","icao":"ZYTL","name":"Dalian Zhoushuizi International Airport","city":"Dalian (Ganjingzi)","cc":"CN","lat":38.9657,"lon":121.5385,"big":true},{"iata":"DLM","icao":"LTBS","name":"Dalaman International Airport","city":"Dalaman","cc":"TR","lat":36.7131,"lon":28.7925,"big":true},{"iata":"DMB","icao":"UADD","name":"Taraz International Airport","city":"Taraz","cc":"KZ","lat":42.8536,"lon":71.3036,"big":true},{"iata":"DME","icao":"UUDD","name":"Domodedovo International Airport","city":"Moscow","cc":"RU","lat":55.4088,"lon":37.9063,"big":true},{"iata":"DMK","icao":"VTBD","name":"Don Mueang International Airport","city":"Bangkok","cc":"TH","lat":13.9126,"lon":100.607,"big":true},{"iata":"DMM","icao":"OEDF","name":"King Fahd International Airport","city":"Ad Dammam","cc":"SA","lat":26.4691,"lon":49.7982,"big":true},{"iata":"DNA","icao":"RODN","name":"Kadena Air Base","city":"Okinawa","cc":"JP","lat":26.3517,"lon":127.7694,"big":true},{"iata":"DNH","icao":"ZLDH","name":"Dunhuang Mogao International Airport","city":"Dunhuang","cc":"CN","lat":40.162,"lon":94.8128,"big":true},{"iata":"DOH","icao":"OTHH","name":"Hamad International Airport","city":"Doha","cc":"QA","lat":25.2731,"lon":51.6081,"big":true},{"iata":"DPS","icao":"WADD","name":"Denpasar I Gusti Ngurah Rai International Airport","city":"Kuta, Badung","cc":"ID","lat":-8.7484,"lon":115.1671,"big":true},{"iata":"DQM","icao":"OODQ","name":"Duqm International Airport","city":"Duqm","cc":"OM","lat":19.5019,"lon":57.6342,"big":true},{"iata":"DRP","icao":"RPLK","name":"Bicol International Airport","city":"Legazpi","cc":"PH","lat":13.1119,"lon":123.6768,"big":true},{"iata":"DRS","icao":"EDDC","name":"Dresden Airport","city":"Dresden","cc":"DE","lat":51.1341,"lon":13.7678,"big":true},{"iata":"DRW","icao":"YPDN","name":"Darwin International Airport / RAAF Darwin","city":"Darwin","cc":"AU","lat":-12.415,"lon":130.8818,"big":true},{"iata":"DSM","icao":"KDSM","name":"Des Moines International Airport","city":"Des Moines","cc":"US","lat":41.534,"lon":-93.6567,"big":true},{"iata":"DSN","icao":"ZBDS","name":"Ordos Ejin Horo International Airport","city":"Ordos","cc":"CN","lat":39.4935,"lon":109.8599,"big":true},{"iata":"DSS","icao":"GOBD","name":"Blaise Diagne International Airport","city":"Dakar","cc":"SN","lat":14.6709,"lon":-17.0728,"big":true},{"iata":"DSY","icao":"VDDS","name":"Dara Sakor International Airport","city":"Ta Noun","cc":"KH","lat":10.9142,"lon":103.2267,"big":true},{"iata":"DTM","icao":"EDLW","name":"Dortmund Airport","city":"Dortmund","cc":"DE","lat":51.5183,"lon":7.6122,"big":true},{"iata":"DTW","icao":"KDTW","name":"Detroit Metropolitan Wayne County Airport","city":"Detroit","cc":"US","lat":42.2138,"lon":-83.3538,"big":true},{"iata":"DUB","icao":"EIDW","name":"Dublin Airport","city":"Dublin","cc":"IE","lat":53.4287,"lon":-6.2621,"big":true},{"iata":"DUR","icao":"FALE","name":"King Shaka International Airport","city":"Durban","cc":"ZA","lat":-29.6144,"lon":31.1197,"big":true},{"iata":"DUS","icao":"EDDL","name":"Düsseldorf Airport","city":"Düsseldorf","cc":"DE","lat":51.2895,"lon":6.7668,"big":true},{"iata":"DVO","icao":"RPMD","name":"Francisco Bangoy International Airport","city":"Davao","cc":"PH","lat":7.1255,"lon":125.646,"big":true},{"iata":"DWC","icao":"OMDW","name":"Al Maktoum International Airport","city":"Dubai(Jebel Ali)","cc":"AE","lat":24.8962,"lon":55.1624,"big":true},{"iata":"DXB","icao":"OMDB","name":"Dubai International Airport","city":"Dubai","cc":"AE","lat":25.2498,"lon":55.371,"big":true},{"iata":"DXN","icao":"VIND","name":"Noida International Airport","city":"Gautam Buddha Nagar","cc":"IN","lat":28.1799,"lon":77.6118,"big":true},{"iata":"DYG","icao":"ZGDY","name":"Zhangjiajie Hehua International Airport","city":"Zhangjiajie (Yongding)","cc":"CN","lat":29.1047,"lon":110.4428,"big":true},{"iata":"DYU","icao":"UTDD","name":"Dushanbe International Airport","city":"Dushanbe","cc":"TJ","lat":38.5437,"lon":68.823,"big":true},{"iata":"DZA","icao":"FMCZ","name":"Dzaoudzi Pamandzi International Airport","city":"Dzaoudzi","cc":"YT","lat":-12.8093,"lon":45.2818,"big":true},{"iata":"DZN","icao":"UAKD","name":"Zhezkazgan National Airport","city":"Zhezkazgan","cc":"KZ","lat":47.709,"lon":67.7381,"big":true},{"iata":"EBB","icao":"HUEN","name":"Entebbe International Airport","city":"Entebbe","cc":"UG","lat":0.0424,"lon":32.4435,"big":true},{"iata":"EBL","icao":"ORER","name":"Erbil International Airport","city":"Arbil","cc":"IQ","lat":36.236,"lon":43.9466,"big":true},{"iata":"ECN","icao":"LCEN","name":"Ercan International Airport","city":"Tymbou (Kirklar)","cc":"CY","lat":35.1531,"lon":33.5074,"big":true},{"iata":"EDI","icao":"EGPH","name":"Edinburgh Airport","city":"Edinburgh","cc":"GB","lat":55.9501,"lon":-3.3723,"big":true},{"iata":"EDL","icao":"HKEL","name":"Eldoret International Airport","city":"Eldoret","cc":"KE","lat":0.4045,"lon":35.2389,"big":true},{"iata":"EDO","icao":"LTFD","name":"Balıkesir Koca Seyit Airport","city":"Edremit","cc":"TR","lat":39.5525,"lon":27.0102,"big":true},{"iata":"EES","icao":"HEBR","name":"Berenice International Airport / Banas Cape Air Base","city":"Berenice Troglodytica","cc":"EG","lat":23.9804,"lon":35.4603,"big":true},{"iata":"EHU","icao":"ZHEC","name":"Ezhou Huahu International Airport","city":"Ezhou","cc":"CN","lat":30.3412,"lon":115.0393,"big":true},{"iata":"EIN","icao":"EHEH","name":"Eindhoven Airport","city":"Eindhoven","cc":"NL","lat":51.4501,"lon":5.3745,"big":true},{"iata":"EIS","icao":"TUPJ","name":"Terrance B. Lettsome International Airport","city":"Beef Island","cc":"VG","lat":18.4455,"lon":-64.5417,"big":true},{"iata":"ELP","icao":"KELP","name":"El Paso International Airport","city":"El Paso","cc":"US","lat":31.8099,"lon":-106.3756,"big":true},{"iata":"ELQ","icao":"OEGS","name":"Prince Naif bin Abdulaziz International Airport","city":"Qassim","cc":"SA","lat":26.3028,"lon":43.7744,"big":true},{"iata":"ELS","icao":"FAEL","name":"King Phalo Airport","city":"East London","cc":"ZA","lat":-33.0356,"lon":27.8259,"big":true},{"iata":"EMA","icao":"EGNX","name":"East Midlands Airport","city":"Nottingham, Leicestershire","cc":"GB","lat":52.8311,"lon":-1.3281,"big":true},{"iata":"ENO","icao":"SGEN","name":"Teniente Ramon A. Ayub Gonzalez International Airport","city":"Encarnación","cc":"PY","lat":-27.2275,"lon":-55.8376,"big":true},{"iata":"ENU","icao":"DNEN","name":"Akanu Ibiam International Airport","city":"Enegu","cc":"NG","lat":6.4737,"lon":7.5605,"big":true},{"iata":"ERF","icao":"EDDE","name":"Erfurt-Weimar Airport","city":"Erfurt","cc":"DE","lat":50.9783,"lon":10.9607,"big":true},{"iata":"ESB","icao":"LTAC","name":"Esenboğa International Airport","city":"Ankara","cc":"TR","lat":40.1281,"lon":32.9951,"big":true},{"iata":"ESM","icao":"SETN","name":"Carlos Concha Torres International Airport","city":"Tachina","cc":"EC","lat":0.9785,"lon":-79.6266,"big":true},{"iata":"ETM","icao":"LLER","name":"Ramon International Airport","city":"Eilat","cc":"IL","lat":29.727,"lon":35.0141,"big":true},{"iata":"EUN","icao":"GMML","name":"Laayoune Hassan I International Airport","city":"El Aaiún","cc":"EH","lat":27.1425,"lon":-13.2249,"big":true},{"iata":"EVE","icao":"ENEV","name":"Harstad/Narvik Airport","city":"Evenes","cc":"NO","lat":68.4913,"lon":16.6781,"big":true},{"iata":"EVN","icao":"UDYZ","name":"Zvartnots International Airport","city":"Yerevan","cc":"AM","lat":40.1489,"lon":44.3979,"big":true},{"iata":"EWR","icao":"KEWR","name":"Newark Liberty International Airport","city":"Newark","cc":"US","lat":40.6894,"lon":-74.1705,"big":true},{"iata":"EZE","icao":"SAEZ","name":"Ezeiza International Airport - Ministro Pistarini","city":"Buenos Aires (Ezeiza)","cc":"AR","lat":-34.8222,"lon":-58.5358,"big":true},{"iata":"FAE","icao":"EKVG","name":"Vágar Airport","city":"Vágar","cc":"FO","lat":62.0633,"lon":-7.2758,"big":true},{"iata":"FAO","icao":"LPFR","name":"Faro - Gago Coutinho International Airport","city":"Faro","cc":"PT","lat":37.0159,"lon":-7.9709,"big":true},{"iata":"FAT","icao":"KFAT","name":"Fresno Yosemite International Airport","city":"Fresno","cc":"US","lat":36.7758,"lon":-119.718,"big":true},{"iata":"FBM","icao":"FZQA","name":"Lubumbashi International Airport","city":"Lubumbashi","cc":"CD","lat":-11.5915,"lon":27.5308,"big":true},{"iata":"FCO","icao":"LIRF","name":"Rome–Fiumicino Leonardo da Vinci International Airport","city":"Rome","cc":"IT","lat":41.8045,"lon":12.252,"big":true},{"iata":"FDF","icao":"TFFF","name":"Martinique Aimé Césaire International Airport","city":"Fort-de-France","cc":"MQ","lat":14.591,"lon":-61.0032,"big":true},{"iata":"FDH","icao":"EDNY","name":"Bodensee Airport Friedrichshafen","city":"Friedrichshafen","cc":"DE","lat":47.6713,"lon":9.5115,"big":true},{"iata":"FEZ","icao":"GMFF","name":"Fes Saïss International Airport","city":"Saïss","cc":"MA","lat":33.9273,"lon":-4.978,"big":true},{"iata":"FIH","icao":"FZAA","name":"Ndjili International Airport","city":"Kinshasa","cc":"CD","lat":-4.3857,"lon":15.4446,"big":true},{"iata":"FJR","icao":"OMFJ","name":"Fujairah International Airport","city":"Fujairah","cc":"AE","lat":25.1084,"lon":56.3281,"big":true},{"iata":"FKB","icao":"EDSB","name":"Karlsruhe Baden-Baden Airport","city":"Rheinmünster","cc":"DE","lat":48.7794,"lon":8.0805,"big":true},{"iata":"FKI","icao":"FZIC","name":"Bangoka International Airport","city":"Kisangani","cc":"CD","lat":0.4816,"lon":25.338,"big":true},{"iata":"FLL","icao":"KFLL","name":"Fort Lauderdale Hollywood International Airport","city":"Fort Lauderdale","cc":"US","lat":26.0726,"lon":-80.1527,"big":true},{"iata":"FLN","icao":"SBFL","name":"Hercílio Luz International Airport","city":"Florianópolis","cc":"BR","lat":-27.6703,"lon":-48.5525,"big":true},{"iata":"FLR","icao":"LIRQ","name":"Florence Airport, Peretola","city":"Firenze (FI)","cc":"IT","lat":43.8086,"lon":11.2028,"big":true},{"iata":"FMM","icao":"EDJA","name":"Memmingen Allgau Airport","city":"Memmingen","cc":"DE","lat":47.9881,"lon":10.2382,"big":true},{"iata":"FMO","icao":"EDDG","name":"Münster Osnabrück Airport","city":"Greven","cc":"DE","lat":52.1338,"lon":7.6885,"big":true},{"iata":"FNA","icao":"GFLL","name":"Lungi International Airport","city":"Freetown (Lungi-Town)","cc":"SL","lat":8.6164,"lon":-13.1955,"big":true},{"iata":"FNC","icao":"LPMA","name":"Cristiano Ronaldo International Airport","city":"Funchal","cc":"PT","lat":32.6978,"lon":-16.7746,"big":true},{"iata":"FNJ","icao":"ZKPY","name":"Pyongyang Sunan International Airport","city":"Pyongyang","cc":"KP","lat":39.2241,"lon":125.67,"big":true},{"iata":"FOC","icao":"ZSFZ","name":"Fuzhou Changle International Airport","city":"Fuzhou (Changle)","cc":"CN","lat":25.9293,"lon":119.6725,"big":true},{"iata":"FOR","icao":"SBFZ","name":"Pinto Martins International Airport","city":"Fortaleza","cc":"BR","lat":-3.7758,"lon":-38.5322,"big":true},{"iata":"FPO","icao":"MYGF","name":"Grand Bahama International Airport","city":"Freeport","cc":"BS","lat":26.558,"lon":-78.6956,"big":true},{"iata":"FRA","icao":"EDDF","name":"Frankfurt Main Airport","city":"Frankfurt am Main","cc":"DE","lat":50.0267,"lon":8.5584,"big":true},{"iata":"FRW","icao":"FBPM","name":"Phillip Gaonwe Matante International Airport","city":"Francistown","cc":"BW","lat":-21.1592,"lon":27.4688,"big":true},{"iata":"FSC","icao":"LFKF","name":"Figari Sud-Corse Airport","city":"Figari","cc":"FR","lat":41.5018,"lon":9.0971,"big":true},{"iata":"FSZ","icao":"RJNS","name":"Mount Fuji Shizuoka Airport","city":"Makinohara / Shimada","cc":"JP","lat":34.795,"lon":138.191,"big":true},{"iata":"FTE","icao":"SAWC","name":"El Calafate - Commander Armando Tola International Airport","city":"El Calafate","cc":"AR","lat":-50.282,"lon":-72.0539,"big":true},{"iata":"FUE","icao":"GCFV","name":"Fuerteventura Airport","city":"El Matorral","cc":"ES","lat":28.4527,"lon":-13.8638,"big":true},{"iata":"FUK","icao":"RJFF","name":"Fukuoka Airport","city":"Fukuoka","cc":"JP","lat":33.5859,"lon":130.451,"big":true},{"iata":"GAN","icao":"VRMG","name":"Gan International Airport","city":"Gan","cc":"MV","lat":-0.693,"lon":73.1526,"big":true},{"iata":"GAU","icao":"VEGT","name":"Lokpriya Gopinath Bordoloi International Airport","city":"Guwahati","cc":"IN","lat":26.1067,"lon":91.5852,"big":true},{"iata":"GBE","icao":"FBSK","name":"Sir Seretse Khama International Airport","city":"Gaborone","cc":"BW","lat":-24.5552,"lon":25.9182,"big":true},{"iata":"GCM","icao":"MWCR","name":"Owen Roberts International Airport","city":"George Town","cc":"KY","lat":19.2928,"lon":-81.3577,"big":true},{"iata":"GDL","icao":"MMGL","name":"Guadalajara International Airport","city":"Guadalajara","cc":"MX","lat":20.5233,"lon":-103.3101,"big":true},{"iata":"GDN","icao":"EPGD","name":"Gdańsk Lech Wałęsa Airport","city":"Gdańsk","cc":"PL","lat":54.3776,"lon":18.4662,"big":true},{"iata":"GEG","icao":"KGEG","name":"Spokane International Airport","city":"Spokane","cc":"US","lat":47.6199,"lon":-117.534,"big":true},{"iata":"GEO","icao":"SYCJ","name":"Cheddi Jagan International Airport","city":"Georgetown","cc":"GY","lat":6.4985,"lon":-58.2541,"big":true},{"iata":"GES","icao":"RPMR","name":"General Santos International Airport","city":"General Santos","cc":"PH","lat":6.0572,"lon":125.0962,"big":true},{"iata":"GHV","icao":"LRBV","name":"Brașov-Ghimbav International Airport","city":"Brașov (Ghimbav)","cc":"RO","lat":45.7056,"lon":25.5229,"big":true},{"iata":"GIB","icao":"LXGB","name":"Gibraltar Airport","city":"Gibraltar","cc":"GI","lat":36.1517,"lon":-5.3498,"big":true},{"iata":"GIG","icao":"SBGL","name":"Rio Galeão – Tom Jobim International Airport","city":"Rio De Janeiro","cc":"BR","lat":-22.81,"lon":-43.2506,"big":true},{"iata":"GJL","icao":"DAAV","name":"Jijel Ferhat Abbas Airport","city":"Tahir","cc":"DZ","lat":36.7941,"lon":5.8737,"big":true},{"iata":"GLA","icao":"EGPF","name":"Glasgow Airport","city":"Glasgow","cc":"GB","lat":55.8719,"lon":-4.4331,"big":true},{"iata":"GMP","icao":"RKSS","name":"Gimpo International Airport","city":"Seoul","cc":"KR","lat":37.5583,"lon":126.791,"big":true},{"iata":"GND","icao":"TGPY","name":"Maurice Bishop International Airport","city":"Saint George's","cc":"GD","lat":12.004,"lon":-61.7853,"big":true},{"iata":"GNJ","icao":"UBBG","name":"Ganja International Airport","city":"Ganja","cc":"AZ","lat":40.7387,"lon":46.3204,"big":true},{"iata":"GNY","icao":"LTCS","name":"Şanlıurfa GAP Airport","city":"Şanlıurfa","cc":"TR","lat":37.4457,"lon":38.8956,"big":true},{"iata":"GOA","icao":"LIMJ","name":"Genoa Cristoforo Colombo Airport","city":"Genova (GE)","cc":"IT","lat":44.412,"lon":8.8407,"big":true},{"iata":"GOH","icao":"BGGH","name":"Nuuk International Airport","city":"Nuuk","cc":"GL","lat":64.1911,"lon":-51.6791,"big":true},{"iata":"GOI","icao":"VOGO","name":"Goa Dabolim International Airport","city":"Vasco da Gama","cc":"IN","lat":15.3801,"lon":73.8333,"big":true},{"iata":"GOJ","icao":"UWGG","name":"Nizhny Novgorod / Strigino International Airport","city":"Nizhny Novgorod","cc":"RU","lat":56.2274,"lon":43.7852,"big":true},{"iata":"GOM","icao":"FZNA","name":"Goma International Airport","city":"Goma","cc":"CD","lat":-1.6668,"lon":29.238,"big":true},{"iata":"GOT","icao":"ESGG","name":"Göteborg Landvetter Airport","city":"Göteborg","cc":"SE","lat":57.6628,"lon":12.2798,"big":true},{"iata":"GOU","icao":"FKKR","name":"Garoua International Airport","city":"Garoua","cc":"CM","lat":9.3348,"lon":13.3721,"big":true},{"iata":"GOX","icao":"VOGA","name":"Manohar International Airport","city":"Mopa","cc":"IN","lat":15.7443,"lon":73.8606,"big":true},{"iata":"GRJ","icao":"FAGG","name":"George Airport","city":"George","cc":"ZA","lat":-34.0056,"lon":22.3789,"big":true},{"iata":"GRO","icao":"LEGE","name":"Girona-Costa Brava Airport","city":"Girona","cc":"ES","lat":41.9046,"lon":2.7618,"big":true},{"iata":"GRQ","icao":"EHGG","name":"Groningen Airport Eelde","city":"Groningen","cc":"NL","lat":53.1191,"lon":6.5777,"big":true},{"iata":"GRR","icao":"KGRR","name":"Gerald R. Ford International Airport","city":"Grand Rapids","cc":"US","lat":42.8808,"lon":-85.5228,"big":true},{"iata":"GRU","icao":"SBGR","name":"São Paulo/Guarulhos–Governor André Franco Montoro International Airport","city":"São Paulo","cc":"BR","lat":-23.4313,"lon":-46.47,"big":true},{"iata":"GRV","icao":"URMG","name":"Akhmat Kadyrov Grozny International Airport","city":"Grozny","cc":"RU","lat":43.3881,"lon":45.6998,"big":true},{"iata":"GRZ","icao":"LOWG","name":"Graz Airport","city":"Feldkirchen bei Graz","cc":"AT","lat":46.9911,"lon":15.4396,"big":true},{"iata":"GSM","icao":"OIKQ","name":"Qeshm International Airport","city":"Qeshm(Dayrestan)","cc":"IR","lat":26.7546,"lon":55.9024,"big":true},{"iata":"GSO","icao":"KGSO","name":"Piedmont Triad International Airport","city":"Greensboro","cc":"US","lat":36.0994,"lon":-79.9373,"big":true},{"iata":"GSV","icao":"UWSG","name":"Gagarin International Airport","city":"Saratov","cc":"RU","lat":51.7128,"lon":46.1711,"big":true},{"iata":"GUA","icao":"MGGT","name":"La Aurora International Airport","city":"Guatemala City","cc":"GT","lat":14.5829,"lon":-90.5275,"big":true},{"iata":"GUM","icao":"PGUM","name":"Antonio B. Won Pat International Airport","city":"Hagåtña","cc":"GU","lat":13.485,"lon":144.7973,"big":true},{"iata":"GUW","icao":"UATG","name":"Atyrau International Airport","city":"Atyrau","cc":"KZ","lat":47.1213,"lon":51.8203,"big":true},{"iata":"GVA","icao":"LSGG","name":"Geneva International Airport","city":"Geneva","cc":"CH","lat":46.2381,"lon":6.109,"big":true},{"iata":"GWD","icao":"OPGW","name":"New Gwadar International Airport","city":"Gurandani","cc":"PK","lat":25.2967,"lon":62.4988,"big":true},{"iata":"GXF","icao":"OYSY","name":"Seiyun Hadhramaut International Airport","city":"Seiyun","cc":"YE","lat":15.9659,"lon":48.7881,"big":true},{"iata":"GYD","icao":"UBBB","name":"Heydar Aliyev International Airport","city":"Baku","cc":"AZ","lat":40.4728,"lon":50.0509,"big":true},{"iata":"GYE","icao":"SEGU","name":"José Joaquín de Olmedo International Airport","city":"Guayaquil","cc":"EC","lat":-2.1574,"lon":-79.8836,"big":true},{"iata":"GYN","icao":"SBGO","name":"Santa Genoveva International Airport","city":"Goiânia","cc":"BR","lat":-16.632,"lon":-49.2207,"big":true},{"iata":"GZT","icao":"LTAJ","name":"Gaziantep Oğuzeli International Airport","city":"Gaziantep","cc":"TR","lat":36.9472,"lon":37.4787,"big":true},{"iata":"HAH","icao":"FMCH","name":"Prince Said Ibrahim International Airport","city":"Moroni","cc":"KM","lat":-11.5337,"lon":43.2719,"big":true},{"iata":"HAJ","icao":"EDDV","name":"Hannover Airport","city":"Hannover","cc":"DE","lat":52.4611,"lon":9.6851,"big":true},{"iata":"HAK","icao":"ZJHK","name":"Haikou Meilan International Airport","city":"Haikou (Meilan)","cc":"CN","lat":19.9349,"lon":110.459,"big":true},{"iata":"HAM","icao":"EDDH","name":"Hamburg Helmut Schmidt Airport","city":"Hamburg","cc":"DE","lat":53.6304,"lon":9.9882,"big":true},{"iata":"HAN","icao":"VVNB","name":"Noi Bai International Airport","city":"Hanoi (Soc Son)","cc":"VN","lat":21.2212,"lon":105.807,"big":true},{"iata":"HAQ","icao":"VRMH","name":"Hanimaadhoo International Airport","city":"Haa Dhaalu Atoll","cc":"MV","lat":6.7432,"lon":73.1671,"big":true},{"iata":"HAS","icao":"OEHL","name":"Hail International Airport","city":"Hail","cc":"SA","lat":27.4379,"lon":41.6863,"big":true},{"iata":"HAV","icao":"MUHA","name":"José Martí International Airport","city":"Havana","cc":"CU","lat":22.9892,"lon":-82.4091,"big":true},{"iata":"HBA","icao":"YMHB","name":"Hobart International Airport","city":"Hobart (Cambridge)","cc":"AU","lat":-42.837,"lon":147.513,"big":true},{"iata":"HBE","icao":"HEAX","name":"Alexandria International Airport","city":"Alexandria","cc":"EG","lat":30.9325,"lon":29.6964,"big":true},{"iata":"HDY","icao":"VTSS","name":"Hat Yai International Airport","city":"Hat Yai","cc":"TH","lat":6.9332,"lon":100.393,"big":true},{"iata":"HEA","icao":"OAHR","name":"Herat - Khwaja Abdullah Ansari International Airport","city":"Guzara","cc":"AF","lat":34.21,"lon":62.2283,"big":true},{"iata":"HEL","icao":"EFHK","name":"Helsinki Vantaa Airport","city":"Helsinki (Vantaa)","cc":"FI","lat":60.3184,"lon":24.9633,"big":true},{"iata":"HER","icao":"LGIR","name":"Heraklion International Nikos Kazantzakis Airport","city":"Heraklion","cc":"GR","lat":35.3397,"lon":25.1803,"big":true},{"iata":"HET","icao":"ZBHH","name":"Hohhot Baita International Airport","city":"Hohhot","cc":"CN","lat":40.8497,"lon":111.8246,"big":true},{"iata":"HFE","icao":"ZSOF","name":"Hefei Xinqiao International Airport","city":"Hefei","cc":"CN","lat":31.9878,"lon":116.9769,"big":true},{"iata":"HGA","icao":"HCMH","name":"Egal International Airport","city":"Hargeisa","cc":"SO","lat":9.5141,"lon":44.0835,"big":true},{"iata":"HGH","icao":"ZSHC","name":"Hangzhou Xiaoshan International Airport","city":"Hangzhou","cc":"CN","lat":30.2361,"lon":120.4289,"big":true},{"iata":"HHN","icao":"EDFH","name":"Frankfurt-Hahn Airport","city":"Frankfurt am Main (Lautzenhausen)","cc":"DE","lat":49.9464,"lon":7.2617,"big":true},{"iata":"HIA","icao":"ZSSH","name":"Huai'an Lianshui Airport","city":"Huai'an","cc":"CN","lat":33.7927,"lon":119.1267,"big":true},{"iata":"HIJ","icao":"RJOA","name":"Hiroshima Airport","city":"Hiroshima","cc":"JP","lat":34.4361,"lon":132.919,"big":true},{"iata":"HIR","icao":"AGGH","name":"Honiara International Airport","city":"Honiara","cc":"SB","lat":-9.428,"lon":160.055,"big":true},{"iata":"HKD","icao":"RJCH","name":"Hakodate Airport","city":"Hakodate","cc":"JP","lat":41.77,"lon":140.822,"big":true},{"iata":"HKG","icao":"VHHH","name":"Hong Kong International Airport","city":"Hong Kong","cc":"HK","lat":22.3118,"lon":113.9149,"big":true},{"iata":"HKT","icao":"VTSP","name":"Phuket International Airport","city":"Phuket","cc":"TH","lat":8.1133,"lon":98.3174,"big":true},{"iata":"HLA","icao":"FALA","name":"Lanseria International Airport","city":"Johannesburg","cc":"ZA","lat":-25.939,"lon":27.9266,"big":true},{"iata":"HLD","icao":"ZBLA","name":"Hulunbuir Hailar Airport","city":"Hailar","cc":"CN","lat":49.2086,"lon":119.8223,"big":true},{"iata":"HLP","icao":"WIHH","name":"Halim Perdanakusuma International Airport","city":"Jakarta","cc":"ID","lat":-6.267,"lon":106.8903,"big":true},{"iata":"HMB","icao":"HESG","name":"Suhaj International Airport","city":"Suhaj","cc":"EG","lat":26.3425,"lon":31.743,"big":true},{"iata":"HMO","icao":"MMHO","name":"General Ignacio L. Pesqueira International Airport","city":"Hermosillo","cc":"MX","lat":29.0928,"lon":-111.053,"big":true},{"iata":"HND","icao":"RJTT","name":"Tokyo Haneda International Airport","city":"Tokyo","cc":"JP","lat":35.5497,"lon":139.787,"big":true},{"iata":"HNL","icao":"PHNL","name":"Daniel K. Inouye International Airport","city":"Honolulu, Oahu","cc":"US","lat":21.3184,"lon":-157.9257,"big":true},{"iata":"HOF","icao":"OEAH","name":"Al-Ahsa International Airport","city":"Hofuf","cc":"SA","lat":25.2853,"lon":49.4852,"big":true},{"iata":"HOG","icao":"MUHG","name":"Frank Pais International Airport","city":"Holguin","cc":"CU","lat":20.7851,"lon":-76.3155,"big":true},{"iata":"HOU","icao":"KHOU","name":"William P. Hobby Airport","city":"Houston","cc":"US","lat":29.6453,"lon":-95.2768,"big":true},{"iata":"HPH","icao":"VVCI","name":"Cat Bi International Airport","city":"Haiphong (Hai An)","cc":"VN","lat":20.8174,"lon":106.7243,"big":true},{"iata":"HRB","icao":"ZYHB","name":"Harbin Taiping International Airport","city":"Harbin","cc":"CN","lat":45.6234,"lon":126.25,"big":true},{"iata":"HRE","icao":"FVRG","name":"Robert Gabriel Mugabe International Airport","city":"Harare","cc":"ZW","lat":-17.9318,"lon":31.0928,"big":true},{"iata":"HRG","icao":"HEGN","name":"Hurghada International Airport","city":"Hurghada","cc":"EG","lat":27.1768,"lon":33.7967,"big":true},{"iata":"HRI","icao":"VCRI","name":"Mattala Rajapaksa International Airport","city":"Mattala","cc":"LK","lat":6.2839,"lon":81.1242,"big":true},{"iata":"HSA","icao":"UAIT","name":"Hazrat Sultan International Airport","city":"Turkıstan","cc":"KZ","lat":43.3111,"lon":68.5504,"big":true},{"iata":"HSG","icao":"RJFS","name":"Kyushu Saga International Airport","city":"Saga","cc":"JP","lat":33.1497,"lon":130.302,"big":true},{"iata":"HSN","icao":"ZSZS","name":"Zhoushan Putuoshan International Airport","city":"Zhoushan","cc":"CN","lat":29.9339,"lon":122.3623,"big":true},{"iata":"HSR","icao":"VAHS","name":"Rajkot International Airport","city":"Rajkot","cc":"IN","lat":22.3788,"lon":71.0394,"big":true},{"iata":"HSS","icao":"VIHR","name":"Maharaja Agrasen International Airport","city":"Hisar","cc":"IN","lat":29.1861,"lon":75.7414,"big":true},{"iata":"HTA","icao":"UIAA","name":"Chita-Kadala International Airport","city":"Chita","cc":"RU","lat":52.0248,"lon":113.3058,"big":true},{"iata":"HUN","icao":"RCYU","name":"Hualien Chiashan Airport","city":"Hualien City","cc":"TW","lat":24.0232,"lon":121.618,"big":true},{"iata":"HUX","icao":"MMBT","name":"Bahías de Huatulco International Airport","city":"Huatulco","cc":"MX","lat":15.7754,"lon":-96.2605,"big":true},{"iata":"HWR","icao":"VIHX","name":"Halwara International Airport","city":"Halwara","cc":"IN","lat":30.7485,"lon":75.6298,"big":true},{"iata":"HYD","icao":"VOHS","name":"Rajiv Gandhi International Airport","city":"Hyderabad","cc":"IN","lat":17.2313,"lon":78.4299,"big":true},{"iata":"IAD","icao":"KIAD","name":"Washington Dulles International Airport","city":"Dulles","cc":"US","lat":38.9445,"lon":-77.4558,"big":true},{"iata":"IAH","icao":"KIAH","name":"George Bush Intercontinental Airport","city":"Houston","cc":"US","lat":29.9844,"lon":-95.3414,"big":true},{"iata":"IAR","icao":"UUDL","name":"Golden Ring Yaroslavl International Airport","city":"Tunoshna","cc":"RU","lat":57.5607,"lon":40.1574,"big":true},{"iata":"IAS","icao":"LRIA","name":"Iaşi International Airport","city":"Iaşi","cc":"RO","lat":47.1796,"lon":27.6214,"big":true},{"iata":"IBR","icao":"RJAH","name":"Ibaraki Airport","city":"Omitama","cc":"JP","lat":36.1815,"lon":140.4144,"big":true},{"iata":"IBZ","icao":"LEIB","name":"Ibiza Airport","city":"Ibiza (Eivissa)","cc":"ES","lat":38.8729,"lon":1.3731,"big":true},{"iata":"ICN","icao":"RKSI","name":"Incheon International Airport","city":"Seoul","cc":"KR","lat":37.4691,"lon":126.451,"big":true},{"iata":"IDR","icao":"VAID","name":"Devi Ahilya Bai Holkar International Airport","city":"Indore","cc":"IN","lat":22.7214,"lon":75.8005,"big":true},{"iata":"IFN","icao":"OIFM","name":"Isfahan Shahid Beheshti International Airport","city":"Isfahan","cc":"IR","lat":32.7551,"lon":51.8839,"big":true},{"iata":"IGU","icao":"SBFI","name":"Cataratas International Airport","city":"Foz do Iguaçu","cc":"BR","lat":-25.5942,"lon":-54.4894,"big":true},{"iata":"IKA","icao":"OIIE","name":"Imam Khomeini International Airport","city":"Tehran","cc":"IR","lat":35.4161,"lon":51.1522,"big":true},{"iata":"IKT","icao":"UIII","name":"Irkutsk International Airport","city":"Irkutsk","cc":"RU","lat":52.2667,"lon":104.3956,"big":true},{"iata":"IKU","icao":"UCFL","name":"Issyk-Kul International Airport","city":"Tamchy","cc":"KG","lat":42.5856,"lon":76.7012,"big":true},{"iata":"ILO","icao":"RPVI","name":"Iloilo International Airport","city":"Cabatuan","cc":"PH","lat":10.833,"lon":122.4934,"big":true},{"iata":"ILR","icao":"DNIL","name":"General Tunde Idiagbon International Airport","city":"Ilorin/Ogbomosho","cc":"NG","lat":8.4402,"lon":4.4939,"big":true},{"iata":"IMF","icao":"VEIM","name":"Bir Tikendrajit International Airport","city":"Imphal","cc":"IN","lat":24.76,"lon":93.8967,"big":true},{"iata":"INC","icao":"ZLIC","name":"Yinchuan Hedong International Airport","city":"Yinchuan","cc":"CN","lat":38.3228,"lon":106.3932,"big":true},{"iata":"IND","icao":"KIND","name":"Indianapolis International Airport","city":"Indianapolis","cc":"US","lat":39.7173,"lon":-86.2944,"big":true},{"iata":"INI","icao":"LYNI","name":"Niš Constantine the Great Airport","city":"Niš","cc":"RS","lat":43.3365,"lon":21.8562,"big":true},{"iata":"INN","icao":"LOWI","name":"Innsbruck Airport","city":"Innsbruck","cc":"AT","lat":47.2602,"lon":11.344,"big":true},{"iata":"IOM","icao":"EGNS","name":"Isle of Man Airport","city":"Castletown","cc":"IM","lat":54.0831,"lon":-4.6239,"big":true},{"iata":"IPC","icao":"SCIP","name":"Mataveri International Airport","city":"Isla De Pascua","cc":"CL","lat":-27.1654,"lon":-109.421,"big":true},{"iata":"IPH","icao":"WMKI","name":"Sultan Azlan Shah Airport","city":"Ipoh","cc":"MY","lat":4.5673,"lon":101.0916,"big":true},{"iata":"IQQ","icao":"SCDA","name":"Diego Aracena International Airport","city":"Iquique","cc":"CL","lat":-20.5363,"lon":-70.1814,"big":true},{"iata":"IQT","icao":"SPQT","name":"Coronel FAP Francisco Secada Vignetta International Airport","city":"Iquitos","cc":"PE","lat":-3.7847,"lon":-73.3088,"big":true},{"iata":"ISB","icao":"OPIS","name":"Islamabad International Airport","city":"Attock","cc":"PK","lat":33.549,"lon":72.8257,"big":true},{"iata":"ISK","icao":"VAOZ","name":"Nashik International Airport","city":"Nashik","cc":"IN","lat":20.1191,"lon":73.9129,"big":true},{"iata":"ISL","icao":"LTBA","name":"İstanbul Atatürk Airport","city":"Istanbul(Bakırköy)","cc":"TR","lat":40.9719,"lon":28.8237,"big":true},{"iata":"IST","icao":"LTFM","name":"İstanbul Airport","city":"Istanbul","cc":"TR","lat":41.2749,"lon":28.7321,"big":true},{"iata":"ITM","icao":"RJOO","name":"Osaka Itami International Airport","city":"Osaka","cc":"JP","lat":34.7809,"lon":135.4408,"big":true},{"iata":"IVL","icao":"EFIV","name":"Ivalo Airport","city":"Ivalo","cc":"FI","lat":68.6073,"lon":27.4053,"big":true},{"iata":"IXB","icao":"VEBD","name":"Bagdogra Airport","city":"Siliguri","cc":"IN","lat":26.6812,"lon":88.3286,"big":true},{"iata":"IXC","icao":"VICG","name":"Shaheed Bhagat Singh International Airport","city":"Chandigarh","cc":"IN","lat":30.6735,"lon":76.7885,"big":true},{"iata":"IXE","icao":"VOML","name":"Mangaluru International Airport","city":"Mangaluru","cc":"IN","lat":12.9547,"lon":74.8868,"big":true},{"iata":"IXZ","icao":"VOPB","name":"Veer Savarkar International Airport / INS Utkrosh","city":"Port Blair","cc":"IN","lat":11.6402,"lon":92.729,"big":true},{"iata":"JAF","icao":"VCCJ","name":"Jaffna International Airport","city":"Jaffna","cc":"LK","lat":9.7923,"lon":80.0701,"big":true},{"iata":"JAI","icao":"VIJP","name":"Jaipur International Airport","city":"Jaipur","cc":"IN","lat":26.8242,"lon":75.8122,"big":true},{"iata":"JAX","icao":"KJAX","name":"Jacksonville International Airport","city":"Jacksonville","cc":"US","lat":30.4925,"lon":-81.6878,"big":true},{"iata":"JCL","icao":"LKCS","name":"České Budějovice South Bohemian Airport","city":"České Budějovice","cc":"CZ","lat":48.9482,"lon":14.4283,"big":true},{"iata":"JED","icao":"OEJN","name":"King Abdulaziz International Airport","city":"Jeddah","cc":"SA","lat":21.6802,"lon":39.1574,"big":true},{"iata":"JFK","icao":"KJFK","name":"John F. Kennedy International Airport","city":"New York","cc":"US","lat":40.6394,"lon":-73.7793,"big":true},{"iata":"JGN","icao":"ZLJQ","name":"Jiayuguan International Airport","city":"Jiayuguan","cc":"CN","lat":39.8591,"lon":98.3393,"big":true},{"iata":"JHB","icao":"WMKJ","name":"Senai International Airport","city":"Johor Bahru","cc":"MY","lat":1.6413,"lon":103.67,"big":true},{"iata":"JHG","icao":"ZPJH","name":"Xishuangbanna Gasa International Airport","city":"Jinghong (Gasa)","cc":"CN","lat":21.9746,"lon":100.7622,"big":true},{"iata":"JIB","icao":"HDAM","name":"Djibouti-Ambouli Airport","city":"Djibouti City","cc":"DJ","lat":11.5473,"lon":43.1595,"big":true},{"iata":"JIJ","icao":"HAJJ","name":"Gerad Wilwal International Airport","city":"Jijiga","cc":"ET","lat":9.3319,"lon":42.9118,"big":true},{"iata":"JJN","icao":"ZSQZ","name":"Quanzhou Jinjiang International Airport","city":"Quanzhou","cc":"CN","lat":24.7959,"lon":118.5886,"big":true},{"iata":"JNB","icao":"FAOR","name":"O.R. Tambo International Airport","city":"Johannesburg","cc":"ZA","lat":-26.1401,"lon":28.2468,"big":true},{"iata":"JPA","icao":"SBJP","name":"Presidente Castro Pinto International Airport","city":"João Pessoa","cc":"BR","lat":-7.1487,"lon":-34.9506,"big":true},{"iata":"JRO","icao":"HTKJ","name":"Kilimanjaro International Airport","city":"Arusha","cc":"TZ","lat":-3.427,"lon":37.0735,"big":true},{"iata":"JTR","icao":"LGSR","name":"Santorini International Airport","city":"Santorini Island","cc":"GR","lat":36.4,"lon":25.4786,"big":true},{"iata":"JUB","icao":"HJJJ","name":"Juba International Airport","city":"Juba","cc":"SS","lat":4.872,"lon":31.6011,"big":true},{"iata":"JUJ","icao":"SASJ","name":"Gobernador Horacio Guzman International Airport","city":"San Salvador de Jujuy","cc":"AR","lat":-24.3928,"lon":-65.0978,"big":true},{"iata":"JUL","icao":"SPJL","name":"Inca Manco Capac International Airport","city":"Juliaca","cc":"PE","lat":-15.4677,"lon":-70.1565,"big":true},{"iata":"KAD","icao":"DNKA","name":"Kaduna International Airport","city":"Kaduna","cc":"NG","lat":10.696,"lon":7.3201,"big":true},{"iata":"KAN","icao":"DNKN","name":"Mallam Aminu Kano International Airport","city":"Kano","cc":"NG","lat":12.0456,"lon":8.5236,"big":true},{"iata":"KBL","icao":"OAKB","name":"Kabul International Airport","city":"Kabul","cc":"AF","lat":34.5659,"lon":69.2123,"big":true},{"iata":"KBV","icao":"VTSG","name":"Krabi International Airport","city":"Krabi","cc":"TH","lat":8.0956,"lon":98.989,"big":true},{"iata":"KCH","icao":"WBGG","name":"Kuching International Airport","city":"Kuching","cc":"MY","lat":1.4874,"lon":110.3529,"big":true},{"iata":"KCZ","icao":"RJOK","name":"Kochi Ryoma Airport","city":"Nankoku","cc":"JP","lat":33.5452,"lon":133.6702,"big":true},{"iata":"KDH","icao":"OAKN","name":"Ahmad Shah Baba International Airport","city":"Kandahar","cc":"AF","lat":31.5058,"lon":65.848,"big":true},{"iata":"KDU","icao":"OPSD","name":"Skardu International Airport","city":"Skardu","cc":"PK","lat":35.3387,"lon":75.5386,"big":true},{"iata":"KEF","icao":"BIKF","name":"Keflavik International Airport","city":"Reykjavík","cc":"IS","lat":63.985,"lon":-22.6056,"big":true},{"iata":"KEJ","icao":"UNEE","name":"Alexei Leonov Kemerovo International Airport","city":"Kemerovo","cc":"RU","lat":55.2701,"lon":86.1072,"big":true},{"iata":"KER","icao":"OIKK","name":"Ayatollah Hashemi Rafsanjani International Airport","city":"Kerman","cc":"IR","lat":30.2713,"lon":56.9497,"big":true},{"iata":"KGD","icao":"UMKK","name":"Khrabrovo Airport","city":"Kaliningrad","cc":"RU","lat":54.8916,"lon":20.5986,"big":true},{"iata":"KGF","icao":"UAKK","name":"Sary-Arka Airport","city":"Karaganda","cc":"KZ","lat":49.6708,"lon":73.3344,"big":true},{"iata":"KGL","icao":"HRYR","name":"Kigali International Airport","city":"Kigali","cc":"RW","lat":-1.9686,"lon":30.1395,"big":true},{"iata":"KGS","icao":"LGKO","name":"Kos International Airport \"Ippokratis\"","city":"Kos Island","cc":"GR","lat":36.7945,"lon":27.0911,"big":true},{"iata":"KHG","icao":"ZWSH","name":"Kashgar Laining International Airport","city":"Kashgar","cc":"CN","lat":39.5423,"lon":76.0202,"big":true},{"iata":"KHH","icao":"RCKH","name":"Kaohsiung International Airport","city":"Kaohsiung (Xiaogang)","cc":"TW","lat":22.5771,"lon":120.35,"big":true},{"iata":"KHI","icao":"OPKC","name":"Jinnah International Airport","city":"Karachi","cc":"PK","lat":24.9065,"lon":67.1608,"big":true},{"iata":"KHN","icao":"ZSCN","name":"Nanchang Changbei International Airport","city":"Nanchang","cc":"CN","lat":28.8648,"lon":115.9027,"big":true},{"iata":"KIH","icao":"OIBK","name":"Kish International Airport","city":"Kish Island","cc":"IR","lat":26.5254,"lon":53.9805,"big":true},{"iata":"KIJ","icao":"RJSN","name":"Niigata Airport","city":"Niigata","cc":"JP","lat":37.9542,"lon":139.1122,"big":true},{"iata":"KIK","icao":"ORKK","name":"Kirkuk International Airport","city":"Kirkuk","cc":"IQ","lat":35.4695,"lon":44.3489,"big":true},{"iata":"KIM","icao":"FAKM","name":"Kimberley Airport","city":"Kimberley","cc":"ZA","lat":-28.8054,"lon":24.7649,"big":true},{"iata":"KIN","icao":"MKJP","name":"Norman Manley International Airport","city":"Kingston","cc":"JM","lat":17.9357,"lon":-76.7875,"big":true},{"iata":"KIS","icao":"HKKI","name":"Kisumu International Airport","city":"Kisumu","cc":"KE","lat":-0.0861,"lon":34.7289,"big":true},{"iata":"KIX","icao":"RJBB","name":"Kansai International Airport","city":"Osaka","cc":"JP","lat":34.4273,"lon":135.244,"big":true},{"iata":"KJA","icao":"UNKL","name":"Krasnoyarsk International Airport","city":"Krasnoyarsk","cc":"RU","lat":56.1757,"lon":92.4858,"big":true},{"iata":"KKJ","icao":"RJFR","name":"Kitakyushu Airport","city":"Kitakyushu","cc":"JP","lat":33.8459,"lon":131.035,"big":true},{"iata":"KLO","icao":"RPVK","name":"Kalibo International Airport","city":"Kalibo","cc":"PH","lat":11.6794,"lon":122.376,"big":true},{"iata":"KLU","icao":"LOWK","name":"Klagenfurt Airport","city":"Klagenfurt am Wörthersee","cc":"AT","lat":46.6425,"lon":14.3377,"big":true},{"iata":"KLV","icao":"LKKV","name":"Karlovy Vary Airport","city":"Karlovy Vary","cc":"CZ","lat":50.203,"lon":12.915,"big":true},{"iata":"KMG","icao":"ZPPP","name":"Kunming Changshui International Airport","city":"Kunming","cc":"CN","lat":25.1103,"lon":102.9367,"big":true},{"iata":"KMI","icao":"RJFM","name":"Miyazaki Airport","city":"Miyazaki","cc":"JP","lat":31.8772,"lon":131.449,"big":true},{"iata":"KMJ","icao":"RJFT","name":"Kumamoto Airport","city":"Kumamoto","cc":"JP","lat":32.8373,"lon":130.855,"big":true},{"iata":"KMQ","icao":"RJNK","name":"Komatsu Airport / JASDF Komatsu Air Base","city":"Kanazawa","cc":"JP","lat":36.3934,"lon":136.4069,"big":true},{"iata":"KMS","icao":"DGSI","name":"Prempeh I International Airport","city":"Kumasi","cc":"GH","lat":6.7146,"lon":-1.5908,"big":true},{"iata":"KNO","icao":"WIMM","name":"Kualanamu International Airport","city":"Beringin","cc":"ID","lat":3.6378,"lon":98.8706,"big":true},{"iata":"KOA","icao":"PHKO","name":"Ellison Onizuka Kona International Airport at Keāhole","city":"Kailua-Kona","cc":"US","lat":19.7388,"lon":-156.0456,"big":true},{"iata":"KOJ","icao":"RJFK","name":"Kagoshima Airport","city":"Kagoshima","cc":"JP","lat":31.8034,"lon":130.719,"big":true},{"iata":"KOS","icao":"VDSV","name":"Sihanouk International Airport","city":"Preah Sihanouk","cc":"KH","lat":10.5706,"lon":103.6321,"big":true},{"iata":"KOV","icao":"UACK","name":"Kokshetau International Airport","city":"Kokshetau","cc":"KZ","lat":53.3291,"lon":69.5946,"big":true},{"iata":"KQT","icao":"UTDT","name":"Bokhtar International Airport","city":"Bokhtar","cc":"TJ","lat":37.8663,"lon":68.8645,"big":true},{"iata":"KRK","icao":"EPKK","name":"Kraków John Paul II International Airport","city":"Balice","cc":"PL","lat":50.0777,"lon":19.7848,"big":true},{"iata":"KRN","icao":"ESNQ","name":"Kiruna Airport","city":"Kiruna","cc":"SE","lat":67.822,"lon":20.3368,"big":true},{"iata":"KRR","icao":"URKK","name":"Krasnodar Pashkovsky International Airport","city":"Krasnodar","cc":"RU","lat":45.0345,"lon":39.1742,"big":true},{"iata":"KRS","icao":"ENCN","name":"Kristiansand Airport","city":"Kristiansand(Kjevik)","cc":"NO","lat":58.2042,"lon":8.0854,"big":true},{"iata":"KRT","icao":"HSSK","name":"Khartoum International Airport","city":"Khartoum","cc":"SD","lat":15.5895,"lon":32.5532,"big":true},{"iata":"KSA","icao":"PTSA","name":"Kosrae International Airport","city":"Okat","cc":"FM","lat":5.357,"lon":162.958,"big":true},{"iata":"KSF","icao":"EDVK","name":"Kassel Airport","city":"Calden","cc":"DE","lat":51.4184,"lon":9.3916,"big":true},{"iata":"KSN","icao":"UAUU","name":"Kostanay International Airport","city":"Kostanay","cc":"KZ","lat":53.2069,"lon":63.5503,"big":true},{"iata":"KTI","icao":"VDTI","name":"Techo International Airport","city":"Phnom Penh (Boeng Khyang)","cc":"KH","lat":11.36,"lon":104.9213,"big":true},{"iata":"KTM","icao":"VNKT","name":"Tribhuvan International Airport","city":"Kathmandu","cc":"NP","lat":27.6966,"lon":85.3591,"big":true},{"iata":"KTT","icao":"EFKT","name":"Kittilä International Airport","city":"Kittilä","cc":"FI","lat":67.701,"lon":24.8468,"big":true},{"iata":"KTW","icao":"EPKT","name":"Katowice Wojciech Korfanty International Airport","city":"Katowice","cc":"PL","lat":50.476,"lon":19.0807,"big":true},{"iata":"KUF","icao":"UWWW","name":"Kurumoch International Airport","city":"Samara","cc":"RU","lat":53.5049,"lon":50.1643,"big":true},{"iata":"KUL","icao":"WMKK","name":"Kuala Lumpur International Airport","city":"Sepang","cc":"MY","lat":2.7456,"lon":101.71,"big":true},{"iata":"KUN","icao":"EYKA","name":"Kaunas International Airport","city":"Kaunas","cc":"LT","lat":54.964,"lon":24.0858,"big":true},{"iata":"KUO","icao":"EFKU","name":"Kuopio Airport","city":"Kuopio / Siilinjärvi","cc":"FI","lat":63.0071,"lon":27.7978,"big":true},{"iata":"KUT","icao":"UGKO","name":"David the Builder Kutaisi International Airport","city":"Kopitnari","cc":"GE","lat":42.1774,"lon":42.4854,"big":true},{"iata":"KVA","icao":"LGKV","name":"Kavala Alexander the Great International Airport","city":"Kavala","cc":"GR","lat":40.9133,"lon":24.6192,"big":true},{"iata":"KWE","icao":"ZUGY","name":"Guiyang Longdongbao International Airport","city":"Guiyang (Nanming)","cc":"CN","lat":26.5418,"lon":106.804,"big":true},{"iata":"KWI","icao":"OKKK","name":"Kuwait International Airport","city":"Kuwait City","cc":"KW","lat":29.2245,"lon":47.9698,"big":true},{"iata":"KWL","icao":"ZGKL","name":"Guilin Liangjiang International Airport","city":"Guilin (Lingui)","cc":"CN","lat":25.2198,"lon":110.0396,"big":true},{"iata":"KYA","icao":"LTAN","name":"Konya Airport","city":"Konya","cc":"TR","lat":37.979,"lon":32.5619,"big":true},{"iata":"KZN","icao":"UWKD","name":"Kazan International Airport","city":"Kazan","cc":"RU","lat":55.6062,"lon":49.2787,"big":true},{"iata":"KZO","icao":"UAOO","name":"Korkyt Ata International Airport","city":"Kyzylorda","cc":"KZ","lat":44.7069,"lon":65.5925,"big":true},{"iata":"LAD","icao":"FNLU","name":"Quatro de Fevereiro International Airport","city":"Luanda","cc":"AO","lat":-8.8584,"lon":13.2312,"big":true},{"iata":"LAE","icao":"AYNZ","name":"Nadzab Tomodachi International Airport","city":"Lae","cc":"PG","lat":-6.568,"lon":146.7265,"big":true},{"iata":"LAO","icao":"RPLI","name":"Laoag International Airport","city":"Laoag City","cc":"PH","lat":18.1751,"lon":120.531,"big":true},{"iata":"LAQ","icao":"HLLQ","name":"Al Abraq International Airport","city":"Al Albraq","cc":"LY","lat":32.789,"lon":21.9549,"big":true},{"iata":"LAS","icao":"KLAS","name":"Harry Reid International Airport","city":"Las Vegas","cc":"US","lat":36.0834,"lon":-115.1518,"big":true},{"iata":"LAX","icao":"KLAX","name":"Los Angeles International Airport","city":"Los Angeles","cc":"US","lat":33.9425,"lon":-118.408,"big":true},{"iata":"LBA","icao":"EGNM","name":"Leeds Bradford Airport","city":"Leeds, West Yorkshire","cc":"GB","lat":53.8659,"lon":-1.6606,"big":true},{"iata":"LBD","icao":"UTDL","name":"Khujand International Airport","city":"Khujand","cc":"TJ","lat":40.2154,"lon":69.6947,"big":true},{"iata":"LBG","icao":"LFPB","name":"Paris-Le Bourget International Airport","city":"Paris","cc":"FR","lat":48.9623,"lon":2.4365,"big":true},{"iata":"LBV","icao":"FOOL","name":"Libreville Leon M'ba International Airport","city":"Libreville","cc":"GA","lat":0.459,"lon":9.4121,"big":true},{"iata":"LCA","icao":"LCLK","name":"Larnaca International Airport","city":"Larnaca","cc":"CY","lat":34.8751,"lon":33.6249,"big":true},{"iata":"LCJ","icao":"EPLL","name":"Łódź Władysław Reymont Airport","city":"Łódź","cc":"PL","lat":51.7219,"lon":19.3981,"big":true},{"iata":"LED","icao":"ULLI","name":"Pulkovo Airport","city":"St. Petersburg","cc":"RU","lat":59.8003,"lon":30.2625,"big":true},{"iata":"LEJ","icao":"EDDP","name":"Leipzig/Halle Airport","city":"Schkeuditz","cc":"DE","lat":51.4207,"lon":12.2327,"big":true},{"iata":"LFW","icao":"DXXX","name":"Lomé–Tokoin International Airport","city":"Lomé","cc":"TG","lat":6.1656,"lon":1.2545,"big":true},{"iata":"LGA","icao":"KLGA","name":"LaGuardia Airport","city":"New York","cc":"US","lat":40.7772,"lon":-73.8726,"big":true},{"iata":"LGB","icao":"KLGB","name":"Long Beach International Airport","city":"Long Beach","cc":"US","lat":33.8165,"lon":-118.1499,"big":true},{"iata":"LGK","icao":"WMKL","name":"Langkawi International Airport","city":"Langkawi","cc":"MY","lat":6.3297,"lon":99.7287,"big":true},{"iata":"LGW","icao":"EGKK","name":"London Gatwick Airport","city":"London","cc":"GB","lat":51.1487,"lon":-0.1857,"big":true},{"iata":"LHE","icao":"OPLA","name":"Allama Iqbal International Airport","city":"Lahore","cc":"PK","lat":31.5216,"lon":74.4036,"big":true},{"iata":"LHR","icao":"EGLL","name":"London Heathrow Airport","city":"London","cc":"GB","lat":51.4707,"lon":-0.4599,"big":true},{"iata":"LHW","icao":"ZLLL","name":"Lanzhou Zhongchuan International Airport","city":"Lanzhou (Yongdeng)","cc":"CN","lat":36.5152,"lon":103.62,"big":true},{"iata":"LIH","icao":"PHLI","name":"Lihue Airport","city":"Lihue, Kauai","cc":"US","lat":21.9744,"lon":-159.3371,"big":true},{"iata":"LIL","icao":"LFQQ","name":"Lille Airport","city":"Lesquin","cc":"FR","lat":50.5666,"lon":3.1024,"big":true},{"iata":"LIM","icao":"SPJC","name":"Jorge Chávez International Airport","city":"Lima","cc":"PE","lat":-12.0219,"lon":-77.1143,"big":true},{"iata":"LIN","icao":"LIML","name":"Milano Linate Airport","city":"Segrate (MI)","cc":"IT","lat":45.4451,"lon":9.2767,"big":true},{"iata":"LIR","icao":"MRLB","name":"Daniel Oduber Quirós International Airport","city":"Liberia","cc":"CR","lat":10.5933,"lon":-85.5444,"big":true},{"iata":"LIS","icao":"LPPT","name":"Lisbon Humberto Delgado Airport","city":"Lisbon","cc":"PT","lat":38.7813,"lon":-9.1359,"big":true},{"iata":"LJG","icao":"ZPLJ","name":"Lijiang Sanyi International Airport","city":"Lijiang","cc":"CN","lat":26.6775,"lon":100.2449,"big":true},{"iata":"LJU","icao":"LJLJ","name":"Ljubljana Jože Pučnik Airport","city":"Zgornji Brnik","cc":"SI","lat":46.2237,"lon":14.4576,"big":true},{"iata":"LKO","icao":"VILK","name":"Chaudhary Charan Singh International Airport","city":"Lucknow","cc":"IN","lat":26.7606,"lon":80.8893,"big":true},{"iata":"LLA","icao":"ESPA","name":"Luleå Airport","city":"Luleå","cc":"SE","lat":65.5438,"lon":22.122,"big":true},{"iata":"LLW","icao":"FWKI","name":"Kamuzu International Airport","city":"Lumbadzi","cc":"MW","lat":-13.7894,"lon":33.781,"big":true},{"iata":"LNZ","icao":"LOWL","name":"Linz-Hörsching Airport","city":"Linz","cc":"AT","lat":48.2354,"lon":14.1881,"big":true},{"iata":"LOP","icao":"WADL","name":"Lombok International Airport","city":"Mataram (Pujut, Lombok Tengah)","cc":"ID","lat":-8.76,"lon":116.2782,"big":true},{"iata":"LOS","icao":"DNMM","name":"Murtala Muhammed International Airport","city":"Lagos","cc":"NG","lat":6.5774,"lon":3.3212,"big":true},{"iata":"LPA","icao":"GCLP","name":"Gran Canaria Airport","city":"Gran Canaria Island","cc":"ES","lat":27.9319,"lon":-15.3866,"big":true},{"iata":"LPB","icao":"SLLP","name":"El Alto International Airport","city":"La Paz / El Alto","cc":"BO","lat":-16.5103,"lon":-68.1894,"big":true},{"iata":"LPI","icao":"ESSL","name":"Linköping City Airport","city":"Linköping","cc":"SE","lat":58.4049,"lon":15.6845,"big":true},{"iata":"LPL","icao":"EGGP","name":"Liverpool John Lennon Airport","city":"Liverpool","cc":"GB","lat":53.3349,"lon":-2.8496,"big":true},{"iata":"LPP","icao":"EFLP","name":"Lappeenranta Airport","city":"Lappeenranta","cc":"FI","lat":61.0446,"lon":28.1447,"big":true},{"iata":"LPQ","icao":"VLLB","name":"Luang Phabang International Airport","city":"Luang Phabang","cc":"LA","lat":19.9043,"lon":102.1672,"big":true},{"iata":"LPX","icao":"EVLA","name":"Liepāja International Airport","city":"Liepāja","cc":"LV","lat":56.5175,"lon":21.0969,"big":true},{"iata":"LRL","icao":"DXNG","name":"Niamtougou International Airport","city":"Niamtougou","cc":"TG","lat":9.7667,"lon":1.0909,"big":true},{"iata":"LRM","icao":"MDLR","name":"Casa De Campo International Airport","city":"La Romana","cc":"DO","lat":18.4522,"lon":-68.9111,"big":true},{"iata":"LTH","icao":"VVLT","name":"Long Thanh International Airport (Under Construction)","city":"Ho Chi Minh City (Long Thanh)","cc":"VN","lat":10.7728,"lon":107.0406,"big":true},{"iata":"LTN","icao":"EGGW","name":"London Luton Airport","city":"Luton, Luton","cc":"GB","lat":51.8747,"lon":-0.3683,"big":true},{"iata":"LTO","icao":"MMLT","name":"Loreto International Airport","city":"Loreto","cc":"MX","lat":25.9895,"lon":-111.3484,"big":true},{"iata":"LUN","icao":"FLKK","name":"Kenneth Kaunda International Airport","city":"Lusaka","cc":"ZM","lat":-15.3308,"lon":28.4527,"big":true},{"iata":"LUX","icao":"ELLX","name":"Luxembourg-Findel International Airport","city":"Luxembourg","cc":"LU","lat":49.6268,"lon":6.2121,"big":true},{"iata":"LUZ","icao":"EPLB","name":"Lublin Airport","city":"Lublin","cc":"PL","lat":51.2402,"lon":22.7135,"big":true},{"iata":"LVI","icao":"FLHN","name":"Harry Mwanga Nkumbula International Airport","city":"Livingstone","cc":"ZM","lat":-17.8215,"lon":25.8196,"big":true},{"iata":"LWN","icao":"UDSG","name":"Shirak International Airport","city":"Gyumri","cc":"AM","lat":40.7504,"lon":43.8593,"big":true},{"iata":"LWO","icao":"UKLL","name":"Lviv International Airport","city":"Lviv","cc":"UA","lat":49.8125,"lon":23.9561,"big":true},{"iata":"LXA","icao":"ZULS","name":"Lhasa Gonggar International Airport","city":"Shannan (Gonggar)","cc":"CN","lat":29.298,"lon":90.912,"big":true},{"iata":"LXR","icao":"HELX","name":"Luxor International Airport","city":"Luxor","cc":"EG","lat":25.671,"lon":32.7064,"big":true},{"iata":"LYA","icao":"ZHLY","name":"Luoyang Beijiao Airport","city":"Luoyang (Laocheng)","cc":"CN","lat":34.7411,"lon":112.388,"big":true},{"iata":"LYG","icao":"ZSLG","name":"Lianyungang Huaguoshan International Airport","city":"Lianyungang","cc":"CN","lat":34.4141,"lon":119.179,"big":true},{"iata":"LYP","icao":"OPFA","name":"Faisalabad International Airport","city":"Faisalabad","cc":"PK","lat":31.3649,"lon":72.9953,"big":true},{"iata":"LYS","icao":"LFLL","name":"Lyon Saint-Exupéry Airport","city":"Colombier-Saugnieu, Rhône","cc":"FR","lat":45.726,"lon":5.0901,"big":true},{"iata":"MAA","icao":"VOMM","name":"Chennai International Airport","city":"Chennai","cc":"IN","lat":12.99,"lon":80.1693,"big":true},{"iata":"MAD","icao":"LEMD","name":"Adolfo Suárez Madrid–Barajas Airport","city":"Madrid","cc":"ES","lat":40.4934,"lon":-3.5722,"big":true},{"iata":"MAH","icao":"LEMH","name":"Menorca Airport","city":"Mahón (Maó)","cc":"ES","lat":39.8626,"lon":4.2187,"big":true},{"iata":"MAJ","icao":"PKMJ","name":"Marshall Islands International Airport","city":"Majuro Atoll","cc":"MH","lat":7.0651,"lon":171.2717,"big":true},{"iata":"MAN","icao":"EGCC","name":"Manchester Airport","city":"Manchester, Greater Manchester","cc":"GB","lat":53.3494,"lon":-2.2795,"big":true},{"iata":"MAO","icao":"SBEG","name":"Eduardo Gomes International Airport","city":"Manaus","cc":"BR","lat":-3.0386,"lon":-60.0497,"big":true},{"iata":"MAR","icao":"SVMC","name":"La Chinita International Airport","city":"Maracaibo","cc":"VE","lat":10.5575,"lon":-71.7293,"big":true},{"iata":"MBA","icao":"HKMO","name":"Moi International Airport","city":"Mombasa","cc":"KE","lat":-4.0348,"lon":39.5942,"big":true},{"iata":"MBJ","icao":"MKJS","name":"Sangster International Airport","city":"Montego Bay","cc":"JM","lat":18.5034,"lon":-77.9132,"big":true},{"iata":"MCI","icao":"KMCI","name":"Kansas City International Airport","city":"Kansas City","cc":"US","lat":39.3017,"lon":-94.7139,"big":true},{"iata":"MCO","icao":"KMCO","name":"Orlando International Airport","city":"Orlando","cc":"US","lat":28.4294,"lon":-81.309,"big":true},{"iata":"MCT","icao":"OOMS","name":"Muscat International Airport","city":"Muscat/Seeb","cc":"OM","lat":23.6002,"lon":58.2853,"big":true},{"iata":"MCX","icao":"URML","name":"Makhachkala Uytash International Airport","city":"Makhachkala","cc":"RU","lat":42.8168,"lon":47.6523,"big":true},{"iata":"MCY","icao":"YBSU","name":"Sunshine Coast Airport","city":"Maroochydore","cc":"AU","lat":-26.5933,"lon":153.0832,"big":true},{"iata":"MCZ","icao":"SBMO","name":"Zumbi dos Palmares International Airport","city":"Maceió","cc":"BR","lat":-9.5126,"lon":-35.7918,"big":true},{"iata":"MDC","icao":"WAMM","name":"Sam Ratulangi International Airport","city":"Manado","cc":"ID","lat":1.5486,"lon":124.9262,"big":true},{"iata":"MDE","icao":"SKRG","name":"Jose Maria Córdova International Airport","city":"Medellín","cc":"CO","lat":6.1645,"lon":-75.4231,"big":true},{"iata":"MDL","icao":"VYMD","name":"Mandalay International Airport","city":"Mandalay","cc":"MM","lat":21.7022,"lon":95.9779,"big":true},{"iata":"MDW","icao":"KMDW","name":"Chicago Midway International Airport","city":"Chicago","cc":"US","lat":41.786,"lon":-87.7524,"big":true},{"iata":"MDZ","icao":"SAME","name":"Governor Francisco Gabrielli International Airport","city":"Mendoza","cc":"AR","lat":-32.8317,"lon":-68.7929,"big":true},{"iata":"MED","icao":"OEMA","name":"Prince Mohammad Bin Abdulaziz Airport","city":"Medina","cc":"SA","lat":24.5534,"lon":39.7051,"big":true},{"iata":"MEL","icao":"YMML","name":"Melbourne Airport","city":"Melbourne","cc":"AU","lat":-37.6707,"lon":144.8379,"big":true},{"iata":"MEM","icao":"KMEM","name":"Memphis International Airport","city":"Memphis","cc":"US","lat":35.0438,"lon":-89.9763,"big":true},{"iata":"MEX","icao":"MMMX","name":"Mexico City Benito Juárez International Airport","city":"Mexico City","cc":"MX","lat":19.4358,"lon":-99.0703,"big":true},{"iata":"MFM","icao":"VMMC","name":"Macau International Airport","city":"Nossa Senhora do Carmo","cc":"MO","lat":22.1496,"lon":113.592,"big":true},{"iata":"MFU","icao":"FLMF","name":"Mfuwe International Airport","city":"Mfuwe","cc":"ZM","lat":-13.2589,"lon":31.9366,"big":true},{"iata":"MGA","icao":"MNMG","name":"Augusto C. Sandino (Managua) International Airport","city":"Managua","cc":"NI","lat":12.1415,"lon":-86.1682,"big":true},{"iata":"MGQ","icao":"HCMM","name":"Aden Adde International Airport","city":"Mogadishu","cc":"SO","lat":2.0144,"lon":45.3047,"big":true},{"iata":"MHD","icao":"OIMM","name":"Mashhad International Airport","city":"Mashhad","cc":"IR","lat":36.2348,"lon":59.6429,"big":true},{"iata":"MHQ","icao":"EFMA","name":"Mariehamn Airport","city":"Mariehamn","cc":"FI","lat":60.1222,"lon":19.8982,"big":true},{"iata":"MIA","icao":"KMIA","name":"Miami International Airport","city":"Miami","cc":"US","lat":25.796,"lon":-80.2898,"big":true},{"iata":"MID","icao":"MMMD","name":"Manuel Crescencio Rejón International Airport","city":"Mérida","cc":"MX","lat":20.9305,"lon":-89.6455,"big":true},{"iata":"MIU","icao":"DNMA","name":"Maiduguri International Airport","city":"Maiduguri","cc":"NG","lat":11.8542,"lon":13.0807,"big":true},{"iata":"MJI","icao":"HLLM","name":"Mitiga International Airport","city":"Tripoli","cc":"LY","lat":32.8918,"lon":13.2879,"big":true},{"iata":"MJN","icao":"FMNM","name":"Amborovy Airport","city":"Mahajanga","cc":"MG","lat":-15.6668,"lon":46.3512,"big":true},{"iata":"MKE","icao":"KMKE","name":"General Mitchell International Airport","city":"Milwaukee","cc":"US","lat":42.9472,"lon":-87.8966,"big":true},{"iata":"MLA","icao":"LMML","name":"Malta International Airport","city":"Valletta","cc":"MT","lat":35.8459,"lon":14.4915,"big":true},{"iata":"MLE","icao":"VRMM","name":"Velana International Airport","city":"Malé","cc":"MV","lat":4.1918,"lon":73.5291,"big":true},{"iata":"MLM","icao":"MMMM","name":"General Francisco J. Mujica International Airport","city":"Morelia","cc":"MX","lat":19.8499,"lon":-101.025,"big":true},{"iata":"MMK","icao":"ULMM","name":"Emperor Nicholas II Murmansk Airport","city":"Murmansk","cc":"RU","lat":68.7817,"lon":32.7508,"big":true},{"iata":"MMX","icao":"ESMS","name":"Malmö Sturup Airport","city":"Malmö","cc":"SE","lat":55.5356,"lon":13.3763,"big":true},{"iata":"MNI","icao":"TRPG","name":"John A. Osborne Airport","city":"Gerald's Park","cc":"MS","lat":16.7918,"lon":-62.1932,"big":true},{"iata":"MNL","icao":"RPLL","name":"Ninoy Aquino International Airport","city":"Manila (Pasay)","cc":"PH","lat":14.5086,"lon":121.02,"big":true},{"iata":"MPL","icao":"LFMT","name":"Montpellier-Méditerranée Airport","city":"Montpellier/Méditerranée","cc":"FR","lat":43.5762,"lon":3.963,"big":true},{"iata":"MPM","icao":"FQMA","name":"Maputo Airport","city":"Maputo","cc":"MZ","lat":-25.9208,"lon":32.5726,"big":true},{"iata":"MPN","icao":"EGYP","name":"Mount Pleasant Airport / RAF Mount Pleasant","city":"Mount Pleasant","cc":"FK","lat":-51.8226,"lon":-58.4458,"big":true},{"iata":"MQF","icao":"USCM","name":"Magnitogorsk International Airport","city":"Magnitogorsk","cc":"RU","lat":53.392,"lon":58.7552,"big":true},{"iata":"MQP","icao":"FAKN","name":"Kruger Mpumalanga International Airport","city":"Mbombela","cc":"ZA","lat":-25.3833,"lon":31.1053,"big":true},{"iata":"MRS","icao":"LFML","name":"Marseille Provence Airport","city":"Marignane, Bouches-du-Rhône","cc":"FR","lat":43.4381,"lon":5.2125,"big":true},{"iata":"MRU","icao":"FIMP","name":"Sir Seewoosagur Ramgoolam International Airport","city":"Plaine Magnien","cc":"MU","lat":-20.4302,"lon":57.6836,"big":true},{"iata":"MRV","icao":"URMM","name":"Mineralnye Vody Airport","city":"Mineralnyye Vody","cc":"RU","lat":44.2251,"lon":43.0819,"big":true},{"iata":"MSP","icao":"KMSP","name":"Minneapolis–Saint Paul International Airport / Wold–Chamberlain Field","city":"Minneapolis","cc":"US","lat":44.8801,"lon":-93.2217,"big":true},{"iata":"MSQ","icao":"UMMS","name":"Minsk National Airport","city":"Minsk","cc":"BY","lat":53.8881,"lon":28.04,"big":true},{"iata":"MST","icao":"EHBK","name":"Maastricht Aachen Airport","city":"Maastricht","cc":"NL","lat":50.9111,"lon":5.7694,"big":true},{"iata":"MSU","icao":"FXMM","name":"Moshoeshoe I International Airport","city":"Maseru(Mazenod)","cc":"LS","lat":-29.4563,"lon":27.5545,"big":true},{"iata":"MSY","icao":"KMSY","name":"Louis Armstrong New Orleans International Airport","city":"New Orleans","cc":"US","lat":29.9934,"lon":-90.2647,"big":true},{"iata":"MTY","icao":"MMMY","name":"Monterrey International Airport","city":"Monterrey","cc":"MX","lat":25.7785,"lon":-100.107,"big":true},{"iata":"MUB","icao":"FBMN","name":"Maun International Airport","city":"Maun","cc":"BW","lat":-19.9705,"lon":23.4314,"big":true},{"iata":"MUC","icao":"EDDM","name":"Munich Airport","city":"Munich","cc":"DE","lat":48.3538,"lon":11.7861,"big":true},{"iata":"MUH","icao":"HEMM","name":"Mersa Matruh International Airport","city":"Marsa Matruh","cc":"EG","lat":31.3243,"lon":27.2223,"big":true},{"iata":"MUX","icao":"OPMT","name":"Multan International Airport","city":"Multan","cc":"PK","lat":30.2032,"lon":71.4191,"big":true},{"iata":"MVD","icao":"SUMU","name":"Carrasco General Cesáreo L. Berisso International Airport","city":"Ciudad de la Costa","cc":"UY","lat":-34.8356,"lon":-56.0265,"big":true},{"iata":"MWX","icao":"RKJB","name":"Muan International Airport","city":"Muan (Piseo-ri)","cc":"KR","lat":34.9914,"lon":126.3828,"big":true},{"iata":"MWZ","icao":"HTMW","name":"Mwanza International Airport","city":"Mwanza","cc":"TZ","lat":-2.4466,"lon":32.936,"big":true},{"iata":"MXP","icao":"LIMC","name":"Milan Malpensa International Airport","city":"Ferno (VA)","cc":"IT","lat":45.6306,"lon":8.7281,"big":true},{"iata":"MYJ","icao":"RJOM","name":"Matsuyama Airport","city":"Matsuyama","cc":"JP","lat":33.8269,"lon":132.7001,"big":true},{"iata":"MYR","icao":"KMYR","name":"Myrtle Beach International Airport","city":"Myrtle Beach","cc":"US","lat":33.6797,"lon":-78.9283,"big":true},{"iata":"MZG","icao":"RCQC","name":"Penghu Magong Airport","city":"Huxi","cc":"TW","lat":23.5687,"lon":119.628,"big":true},{"iata":"MZR","icao":"OAMS","name":"Mazar-i-Sharif International Airport","city":"Mazar-i-Sharif","cc":"AF","lat":36.7041,"lon":67.2105,"big":true},{"iata":"MZT","icao":"MMMZ","name":"General Rafael Buelna International Airport","city":"Mazatlàn","cc":"MX","lat":23.1628,"lon":-106.2645,"big":true},{"iata":"NAG","icao":"VANP","name":"Dr. Babasaheb Ambedkar International Airport","city":"Nagpur","cc":"IN","lat":21.0922,"lon":79.0472,"big":true},{"iata":"NAJ","icao":"UBBN","name":"Nakhchivan International Airport","city":"Nakhchivan","cc":"AZ","lat":39.1888,"lon":45.4584,"big":true},{"iata":"NAN","icao":"NFFN","name":"Nadi International Airport","city":"Nadi","cc":"FJ","lat":-17.7618,"lon":177.4378,"big":true},{"iata":"NAP","icao":"LIRN","name":"Naples International Airport","city":"Napoli","cc":"IT","lat":40.886,"lon":14.2908,"big":true},{"iata":"NAS","icao":"MYNN","name":"Lynden Pindling International Airport","city":"Nassau","cc":"BS","lat":25.039,"lon":-77.4662,"big":true},{"iata":"NAT","icao":"SBSG","name":"Rio Grande do Norte/São Gonçalo do Amarante–Governador Aluízio Alves International Airport","city":"Natal","cc":"BR","lat":-5.7698,"lon":-35.3666,"big":true},{"iata":"NAV","icao":"LTAZ","name":"Nevşehir Kapadokya Airport","city":"Nevşehir","cc":"TR","lat":38.7719,"lon":34.5345,"big":true},{"iata":"NBJ","icao":"FNBJ","name":"Dr. Antonio Agostinho Neto International Airport","city":"Luanda (Ícolo e Bengo)","cc":"AO","lat":-9.0507,"lon":13.4991,"big":true},{"iata":"NBO","icao":"HKJK","name":"Jomo Kenyatta International Airport","city":"Nairobi","cc":"KE","lat":-1.3189,"lon":36.9282,"big":true},{"iata":"NCE","icao":"LFMN","name":"Nice-Côte d'Azur Airport","city":"Nice, Alpes-Maritimes","cc":"FR","lat":43.6584,"lon":7.2159,"big":true},{"iata":"NCL","icao":"EGNT","name":"Newcastle International Airport","city":"Newcastle upon Tyne, Tyne and Wear","cc":"GB","lat":55.038,"lon":-1.6896,"big":true},{"iata":"NCU","icao":"UZNN","name":"Nukus International Airport","city":"Nukus","cc":"UZ","lat":42.4884,"lon":59.6233,"big":true},